Time,header.seq,header.stamp.secs,header.stamp.nsecs,header.frame_id,force.x,force.y,force.z,orientation.x,orientation.y,orientation.z,orientation.w,angular_velocity.x,angular_velocity.y,angular_velocity.z,aux.current_yaw,aux.kf_correction,aux.angle_corrections,aux.enable_motors,aux.use_external_yaw,kR_0,kR_1,kR_2,kOm_0,kOm_1,kOm_2
1642435551.747557,8900,1642435550,749671689,mocap,-0.11777906119823456,0.09792888164520264,2.389150857925415,-0.019427074119448662,-0.025436511263251305,-0.04135851562023163,0.9986315965652466,-0.007863268256187439,-0.005430960562080145,-0.0001997088111238554,-0.10308795422315598,0.0,"(0.0, 0.0)",True,False,1.5,1.5,1.0,0.12999999523162842,0.12999999523162842,0.10000000149011612
1642435551.7475798,8901,1642435550,751884813,mocap,-0.10860363394021988,0.11091756075620651,2.380064010620117,-0.022300776094198227,-0.02372310310602188,-0.04140089452266693,0.9986119866371155,-0.02419486828148365,0.003927750512957573,0.00016758058336563408,-0.10411106795072556,0.0,"(0.0, 0.0)",True,False,1.5,1.5,1.0,0.12999999523162842,0.12999999523162842,0.10000000149011612
1642435551.7476091,8902,1642435550,763905542,mocap,-0.10845241695642471,0.11042796075344086,2.382157564163208,-0.0221803430467844,-0.023666536435484886,-0.0413968525826931,0.9986161589622498,-0.02278110943734646,0.004096629098057747,0.00017381644283887,-0.10446737706661224,0.0,"(0.0, 0.0)",True,False,1.5,1.5,1.0,0.12999999523162842,0.12999999523162842,0.10000000149011612
1642435551.7476373,8903,1642435550,775680803,mocap,-0.1100330725312233,0.10829176008701324,2.3838977813720703,-0.02170385979115963,-0.023961560800671577,-0.041390709578990936,0.9986198544502258,-0.019390836358070374,0.002383642829954624,9.880413563223556e-05,-0.1044953316450119,0.0,"(0.0, 0.0)",True,False,1.5,1.5,1.0,0.12999999523162842,0.12999999523162842,0.10000000149011612
1642435551.7476532,8904,1642435550,784394761,mocap,-0.12028420716524124,0.0951918214559555,2.393507480621338,-0.018799955025315285,-0.025888510048389435,-0.041349172592163086,0.9986323714256287,-0.002129622269421816,-0.00808701477944851,-0.00028692884370684624,-0.1028188094496727,0.0,"(0.0, 0.0)",True,False,1.5,1.5,1.0,0.12999999523162842,0.12999999523162842,0.10000000149011612
1642435551.747671,8905,1642435550,792280647,mocap,-0.11967381834983826,0.09627307951450348,2.392580509185791,-0.019037708640098572,-0.02578057534992695,-0.04135379567742348,0.9986304640769958,-0.0033982775639742613,-0.007293967064470053,-0.00026232682284899056,-0.10210387408733368,0.0,"(0.0, 0.0)",True,False,1.5,1.5,1.0,0.12999999523162842,0.12999999523162842,0.10000000149011612
1642435551.7476857,8906,1642435550,803019032,mocap,-0.11724679917097092,0.10025118291378021,2.3898415565490723,-0.019910059869289398,-0.02533782832324505,-0.041369494050741196,0.9986241459846497,-0.008252064697444439,-0.004733063280582428,-0.00017866042617242783,-0.10177382826805115,0.0,"(0.0, 0.0)",True,False,1.5,1.5,1.0,0.12999999523162842,0.12999999523162842,0.10000000149011612
1642435551.747702,8907,1642435550,815983042,mocap,-0.11031736433506012,0.11485057324171066,2.382335901260376,-0.023085543885827065,-0.02409212291240692,-0.04142758995294571,0.9985842108726501,-0.026102600619196892,0.0018517066491767764,8.186027116607875e-05,-0.10141462832689285,0.0,"(0.0, 0.0)",True,False,1.5,1.5,1.0,0.12999999523162842,0.12999999523162842,0.10000000149011612
1642435551.7477255,8908,1642435550,823564761,mocap,-0.11148744076490402,0.11275318264961243,2.381704092025757,-0.022642774507403374,-0.02432549186050892,-0.04142112284898758,0.9985889196395874,-0.02281164936721325,0.0005973671213723719,2.5867253498290665e-05,-0.10120148956775665,0.0,"(0.0, 0.0)",True,False,1.5,1.5,1.0,0.12999999523162842,0.12999999523162842,0.10000000149011612
1642435551.7477438,8909,1642435550,832883147,mocap,-0.11281812191009521,0.1090427115559578,2.3849854469299316,-0.02182541973888874,-0.024538684636354446,-0.04140455275774002,0.9986026287078857,-0.017518071457743645,-0.0005127236945554614,-2.135374234057963e-05,-0.10142063349485397,0.0,"(0.0, 0.0)",True,False,1.5,1.5,1.0,0.12999999523162842,0.12999999523162842,0.10000000149011612
1642435551.7477663,8910,1642435550,844011272,mocap,-0.11492969840765,0.10437612980604172,2.387871742248535,-0.020807309076189995,-0.02491019479930401,-0.041385356336832047,0.9986159205436707,-0.0112069146707654,-0.002424389123916626,-9.595386654837057e-05,-0.1010456383228302,0.0,"(0.0, 0.0)",True,False,1.5,1.5,1.0,0.12999999523162842,0.12999999523162842,0.10000000149011612
1642435551.7530043,8911,1642435550,854247313,mocap,-0.12017406523227692,0.09316525608301163,2.394141912460327,-0.018374525010585785,-0.025841698050498962,-0.04133717343211174,0.9986420273780823,0.002962711500003934,-0.007171751465648413,-0.0002483745338395238,-0.10078968107700348,0.0,"(0.0, 0.0)",True,False,1.5,1.5,1.0,0.12999999523162842,0.12999999523162842,0.10000000149011612
1642435551.7530253,8912,1642435550,863933303,mocap,-0.11051866412162781,0.10651405900716782,2.3837993144989014,-0.021329153329133987,-0.024049002677202225,-0.04138302803039551,0.9986261129379272,-0.014002187177538872,0.00267730257473886,0.00010894842125708237,-0.101917564868927,0.0,"(0.0, 0.0)",True,False,1.5,1.5,1.0,0.12999999523162842,0.12999999523162842,0.10000000149011612
1642435551.7530427,8913,1642435550,872672053,mocap,-0.11118923872709274,0.10842997580766678,2.3818657398223877,-0.02174067124724388,-0.02422492951154709,-0.041396550834178925,0.9986124634742737,-0.015866242349147797,0.0015580941690132022,6.466604099841788e-05,-0.10221242159605026,0.0,"(0.0, 0.0)",True,False,1.5,1.5,1.0,0.12999999523162842,0.12999999523162842,0.10000000149011612
1642435551.7530692,8914,1642435550,882658147,mocap,-0.11360713839530945,0.10739657282829285,2.3820459842681885,-0.021501120179891586,-0.0247199684381485,-0.04139968007802963,0.9986053705215454,-0.013937522657215595,-0.0012343692360445857,-5.058872193330899e-05,-0.10198952257633209,0.0,"(0.0, 0.0)",True,False,1.5,1.5,1.0,0.12999999523162842,0.12999999523162842,0.10000000149011612
1642435551.7530873,8915,1642435550,894003407,mocap,-0.11544577032327652,0.10514510422945023,2.384352445602417,-0.02099372260272503,-0.025061164051294327,-0.04139283671975136,0.9986079931259155,-0.010594523511826992,-0.00306027103215456,-0.00012222619261592627,-0.1017645001411438,0.0,"(0.0, 0.0)",True,False,1.5,1.5,1.0,0.12999999523162842,0.12999999523162842,0.10000000149011612
1642435551.753106,8916,1642435550,904088980,mocap,-0.124177485704422,0.09367182105779648,2.393817901611328,-0.01844632439315319,-0.026682205498218536,-0.04135182872414589,0.998617947101593,0.00430726632475853,-0.011712108738720417,-0.0004065037064719945,-0.10031186044216156,0.0,"(0.0, 0.0)",True,False,1.5,1.5,1.0,0.12999999523162842,0.12999999523162842,0.10000000149011612
1642435551.7531183,8917,1642435550,913425386,mocap,-0.12203168869018555,0.09565072506666183,2.3904225826263428,-0.01890391856431961,-0.02628972753882408,-0.04135822132229805,0.998619556427002,0.0016068422701209784,-0.00922322180122137,-0.0003288616135250777,-0.09967511892318726,0.0,"(0.0, 0.0)",True,False,1.5,1.5,1.0,0.12999999523162842,0.12999999523162842,0.10000000149011612
1642435551.7531488,8918,1642435550,924193251,mocap,-0.11856425553560257,0.09919481724500656,2.3886914253234863,-0.019687535241246223,-0.025615766644477844,-0.0413682796061039,0.9986215233802795,-0.0029573242645710707,-0.0053058345802128315,-0.0001977976062335074,-0.0994909256696701,0.0,"(0.0, 0.0)",True,False,1.5,1.5,1.0,0.12999999523162842,0.12999999523162842,0.10000000149011612
1642435551.7531679,8919,1642435550,933842678,mocap,-0.11589053273200989,0.10197440534830093,2.3877642154693604,-0.020298846065998077,-0.025091471150517464,-0.04137541353702545,0.9986222982406616,-0.006401643622666597,-0.002325981855392456,-8.965664164861664e-05,-0.09940973669290543,0.0,"(0.0, 0.0)",True,False,1.5,1.5,1.0,0.12999999523162842,0.12999999523162842,0.10000000149011612
1642435551.7531853,8920,1642435550,943325126,mocap,-0.1146860346198082,0.10295518487691879,2.387802839279175,-0.02051389031112194,-0.02484809421002865,-0.04137673228979111,0.9986239075660706,-0.007459702901542187,-0.0009406593162566423,-3.668198041850701e-05,-0.09927572309970856,0.0,"(0.0, 0.0)",True,False,1.5,1.5,1.0,0.12999999523162842,0.12999999523162842,0.10000000149011612
1642435551.7532003,8921,1642435550,954414292,mocap,-0.11874344944953918,0.097860187292099,2.388948440551758,-0.019405685365200043,-0.02563912235200405,-0.0413612499833107,0.998626708984375,-0.0008172914967872202,-0.005145061761140823,-0.00018889094644691795,-0.09877602010965347,0.0,"(0.0, 0.0)",True,False,1.5,1.5,1.0,0.12999999523162842,0.12999999523162842,0.10000000149011612
1642435551.7532313,8922,1642435550,965105855,mocap,-0.11890427768230438,0.09955836832523346,2.3843915462493896,-0.019795704632997513,-0.025735940784215927,-0.04137313738465309,0.9986160397529602,-0.002871320117264986,-0.005531200673431158,-0.00020734316785819829,-0.09853603690862656,0.0,"(0.0, 0.0)",True,False,1.5,1.5,1.0,0.12999999523162842,0.12999999523162842,0.10000000149011612
1642435551.753245,8923,1642435550,973724657,mocap,-0.11864437162876129,0.10077276080846786,2.382119655609131,-0.020070629194378853,-0.025716356933116913,-0.041380077600479126,0.99861079454422,-0.004288344644010067,-0.005284829530864954,-0.0002010251919273287,-0.09850215166807175,0.0,"(0.0, 0.0)",True,False,1.5,1.5,1.0,0.12999999523162842,0.12999999523162842,0.10000000149011612
1642435551.7532656,8924,1642435550,983222990,mocap,-0.1175236776471138,0.10130416601896286,2.3829286098480225,-0.02018502727150917,-0.025477929040789604,-0.04137904942035675,0.9986146688461304,-0.004864641465246677,-0.0038463810924440622,-0.00014726455265190452,-0.09823256731033325,0.0,"(0.0, 0.0)",True,False,1.5,1.5,1.0,0.12999999523162842,0.12999999523162842,0.10000000149011612
1642435551.7532823,8925,1642435550,994263511,mocap,-0.11183247715234756,0.10794119536876678,2.38234806060791,-0.021628323942422867,-0.024350397288799286,-0.04139607027173042,0.9986118674278259,-0.013092556968331337,0.002299797022715211,9.490834781900048e-05,-0.0986325666308403,0.0,"(0.0, 0.0)",True,False,1.5,1.5,1.0,0.12999999523162842,0.12999999523162842,0.10000000149011612
1642435551.7533197,8926,1642435551,3372001,mocap,-0.10050605237483978,0.1206006184220314,2.37231183052063,-0.024478470906615257,-0.02218199521303177,-0.04142120108008385,0.9985955357551575,-0.029177656397223473,0.014064507558941841,0.0006631905562244356,-0.10184657573699951,0.0,"(0.0, 0.0)",True,False,1.5,1.5,1.0,0.12999999523162842,0.12999999523162842,0.10000000149011612
1642435551.7558215,8927,1642435551,14687157,mocap,-0.1126609593629837,0.10815730690956116,2.3835084438323975,-0.021655436605215073,-0.02451353520154953,-0.04139977693557739,0.9986071586608887,-0.011982714757323265,0.0008709392859600484,3.597783506847918e-05,-0.09989892691373825,0.0,"(0.0, 0.0)",True,False,1.5,1.5,1.0,0.12999999523162842,0.12999999523162842,0.10000000149011612
1642435551.7558634,8928,1642435551,23261792,mocap,-0.12436220049858093,0.09077134728431702,2.391176700592041,-0.01786101423203945,-0.026725629344582558,-0.041336458176374435,0.9986280798912048,0.010158689692616463,-0.010910307057201862,-0.0003658535424619913,-0.09836628288030624,0.0,"(0.0, 0.0)",True,False,1.5,1.5,1.0,0.12999999523162842,0.12999999523162842,0.10000000149011612
1642435551.7558908,8929,1642435551,33690542,mocap,-0.11951977014541626,0.09833730012178421,2.386569023132324,-0.0195174477994442,-0.025830639526247978,-0.041367314755916595,0.9986193776130676,0.0004395443247631192,-0.0058487895876169205,-0.00021594496502075344,-0.09805408865213394,0.0,"(0.0, 0.0)",True,False,1.5,1.5,1.0,0.12999999523162842,0.12999999523162842,0.10000000149011612
1642435551.75591,8930,1642435551,43780594,mocap,-0.116373211145401,0.10226928442716599,2.3844141960144043,-0.020384425297379494,-0.02522995136678219,-0.041380010545253754,0.9986168146133423,-0.004537377506494522,-0.0024493946693837643,-9.480595326749608e-05,-0.09796899557113647,0.0,"(0.0, 0.0)",True,False,1.5,1.5,1.0,0.12999999523162842,0.12999999523162842,0.10000000149011612
1642435551.7559354,8931,1642435551,53210751,mocap,-0.11507174372673035,0.10387228429317474,2.3829116821289062,-0.020743893459439278,-0.02498735673725605,-0.04138508811593056,0.9986153244972229,-0.006447381339967251,-0.0010651991469785571,-4.201714546070434e-05,-0.09780552238225937,0.0,"(0.0, 0.0)",True,False,1.5,1.5,1.0,0.12999999523162842,0.12999999523162842,0.10000000149011612
1642435551.7559745,8932,1642435551,62745022,mocap,-0.11379723995923996,0.10474352538585663,2.384253978729248,-0.020925719290971756,-0.024714432656764984,-0.04138490557670593,0.9986183047294617,-0.007360764779150486,0.00042767488048411906,1.703495036053937e-05,-0.09771256893873215,0.0,"(0.0, 0.0)",True,False,1.5,1.5,1.0,0.12999999523162842,0.12999999523162842,0.10000000149011612
1642435551.7559857,8933,1642435551,77209970,mocap,-0.11327505111694336,0.104732945561409,2.384951114654541,-0.020922154188156128,-0.024598075076937675,-0.04138273745775223,0.99862140417099,-0.007139111869037151,0.0010533896274864674,4.196054578642361e-05,-0.09743712842464447,0.0,"(0.0, 0.0)",True,False,1.5,1.5,1.0,0.12999999523162842,0.12999999523162842,0.10000000149011612
1642435551.7560103,8934,1642435551,83196897,mocap,-0.11229123175144196,0.1043895035982132,2.3867135047912598,-0.020844057202339172,-0.02437172830104828,-0.04137673228979111,0.9986288547515869,-0.006556587293744087,0.0022756329271942377,9.03330001165159e-05,-0.09728681296110153,0.0,"(0.0, 0.0)",True,False,1.5,1.5,1.0,0.12999999523162842,0.12999999523162842,0.10000000149011612
1642435551.7560496,8935,1642435551,93987313,mocap,-0.11210956424474716,0.10334546118974686,2.386643409729004,-0.020628547295928,-0.024325711652636528,-0.04137050732970238,0.9986346960067749,-0.005129793658852577,0.00251760333776474,9.88610481726937e-05,-0.09740836918354034,0.0,"(0.0, 0.0)",True,False,1.5,1.5,1.0,0.12999999523162842,0.12999999523162842,0.10000000149011612
1642435551.7560687,8936,1642435551,103446115,mocap,-0.1092255562543869,0.10564339905977249,2.382974863052368,-0.021166356280446053,-0.02377960830926895,-0.0413740873336792,0.9986364245414734,-0.008058185689151287,0.0054865204729139805,0.00022159580839797854,-0.09930320084095001,0.0,"(0.0, 0.0)",True,False,1.5,1.5,1.0,0.12999999523162842,0.12999999523162842,0.10000000149011612
1642435551.7560875,8937,1642435551,113800230,mocap,-0.11070847511291504,0.10439661890268326,2.3809666633605957,-0.020910007879137993,-0.02409934066236019,-0.04137352481484413,0.9986342191696167,-0.006253611762076616,0.0036343466490507126,0.00014482828555628657,-0.09984754770994186,0.0,"(0.0, 0.0)",True,False,1.5,1.5,1.0,0.12999999523162842,0.12999999523162842,0.10000000149011612
1642435551.7576761,8938,1642435551,122938667,mocap,-0.11269688606262207,0.10330396890640259,2.378551959991455,-0.02068440057337284,-0.02453092485666275,-0.041375525295734406,0.9986282587051392,-0.004640454892069101,0.0012028712080791593,4.734879621537402e-05,-0.09976387768983841,0.0,"(0.0, 0.0)",True,False,1.5,1.5,1.0,0.12999999523162842,0.12999999523162842,0.10000000149011612
1642435551.757705,8939,1642435551,134280699,mocap,-0.11292846500873566,0.10257170349359512,2.3797974586486816,-0.02051834762096405,-0.024560388177633286,-0.04137184098362923,0.9986311197280884,-0.003558945609256625,0.0010072928853332996,3.9312883018283173e-05,-0.09967102855443954,0.0,"(0.0, 0.0)",True,False,1.5,1.5,1.0,0.12999999523162842,0.12999999523162842,0.10000000149011612
1642435551.7577271,8940,1642435551,143271897,mocap,-0.11213329434394836,0.1021406278014183,2.3806238174438477,-0.02042832411825657,-0.02438185177743435,-0.04136646166443825,0.9986375570297241,-0.002979286713525653,0.0019842872861772776,7.711423677392304e-05,-0.09930689632892609,0.0,"(0.0, 0.0)",True,False,1.5,1.5,1.0,0.12999999523162842,0.12999999523162842,0.10000000149011612
1642435551.7577388,8941,1642435551,153675334,mocap,-0.11198101937770844,0.10179097205400467,2.3823235034942627,-0.02034212090075016,-0.024329695850610733,-0.041363392025232315,0.998640775680542,-0.002425107406452298,0.0022008917294442654,8.516142406733707e-05,-0.0992404893040657,0.0,"(0.0, 0.0)",True,False,1.5,1.5,1.0,0.12999999523162842,0.12999999523162842,0.10000000149011612
1642435551.7577515,8942,1642435551,164834553,mocap,-0.11115647852420807,0.10156987607479095,2.3831570148468018,-0.020296314731240273,-0.024146979674696922,-0.04135908558964729,0.9986463189125061,-0.0021281293593347073,0.0031588373240083456,0.00012198524200357497,-0.09901435673236847,0.0,"(0.0, 0.0)",True,False,1.5,1.5,1.0,0.12999999523162842,0.12999999523162842,0.10000000149011612
1642435551.7577744,8943,1642435551,174832990,mocap,-0.11137109994888306,0.10119467228651047,2.3839375972747803,-0.02020939439535141,-0.024180766195058823,-0.041357506066560745,0.9986473321914673,-0.001556015689857304,0.0028778763953596354,0.00011062659905292094,-0.0987929180264473,0.0,"(0.0, 0.0)",True,False,1.5,1.5,1.0,0.12999999523162842,0.12999999523162842,0.10000000149011612
1642435551.7578032,8944,1642435551,185118094,mocap,-0.11181805282831192,0.10097887367010117,2.381246566772461,-0.02018297091126442,-0.024299709126353264,-0.041358888149261475,0.9986448884010315,-0.0012624373193830252,0.002193234860897064,8.417155186180025e-05,-0.09836558997631073,0.0,"(0.0, 0.0)",True,False,1.5,1.5,1.0,0.12999999523162842,0.12999999523162842,0.10000000149011612
1642435551.757836,8945,1642435551,193853459,mocap,-0.11166958510875702,0.10070554912090302,2.380540609359741,-0.020133111625909805,-0.02427351474761963,-0.04135718569159508,0.99864661693573,-0.0009139791945926845,0.002307201735675335,8.831993909552693e-05,-0.09821317344903946,0.0,"(0.0, 0.0)",True,False,1.5,1.5,1.0,0.12999999523162842,0.12999999523162842,0.10000000149011612
1642435551.7578506,8946,1642435551,210235022,mocap,-0.11214983463287354,0.10012678802013397,2.379455327987671,-0.020016808062791824,-0.02438019961118698,-0.04135609045624733,0.9986464381217957,-0.0001619814138393849,0.0016896025044843554,6.427009066101164e-05,-0.09801029413938522,0.0,"(0.0, 0.0)",True,False,1.5,1.5,1.0,0.12999999523162842,0.12999999523162842,0.10000000149011612
1642435551.757868,8947,1642435551,215346480,mocap,-0.11214790493249893,0.09963735193014145,2.3789234161376953,-0.01991884969174862,-0.024381088092923164,-0.04135364294052124,0.998648464679718,0.00043075368739664555,0.001666963449679315,6.308186857495457e-05,-0.09787455946207047,0.0,"(0.0, 0.0)",True,False,1.5,1.5,1.0,0.12999999523162842,0.12999999523162842,0.10000000149011612
1642435551.7586787,8948,1642435551,223932001,mocap,-0.11143028736114502,0.09954965114593506,2.3783440589904785,-0.01991182751953602,-0.024235965684056282,-0.041351016610860825,0.9986522197723389,0.0004618967941496521,0.0024551113601773977,9.290160232922062e-05,-0.09773533791303635,0.0,"(0.0, 0.0)",True,False,1.5,1.5,1.0,0.12999999523162842,0.12999999523162842,0.10000000149011612
1642435551.7590127,8949,1642435551,233643147,mocap,-0.11070934683084488,0.09887579828500748,2.380560874938965,-0.01975894719362259,-0.024056872352957726,-0.041344206780195236,0.9986598491668701,0.0012579100439324975,0.003374343505129218,0.00012670151772908866,-0.09759514033794403,0.0,"(0.0, 0.0)",True,False,1.5,1.5,1.0,0.12999999523162842,0.12999999523162842,0.10000000149011612
1642435551.7590365,8950,1642435551,246555126,mocap,-0.10996113717556,0.09741338342428207,2.3812410831451416,-0.019454283639788628,-0.0238810945302248,-0.041333768516778946,0.9986705183982849,0.0029190084896981716,0.004327422473579645,0.00015991019608918577,-0.0974634662270546,0.0,"(0.0, 0.0)",True,False,1.5,1.5,1.0,0.12999999523162842,0.12999999523162842,0.10000000149011612
1642435551.7590537,8951,1642435551,254198615,mocap,-0.10560232400894165,0.10697435587644577,2.377018690109253,-0.02153083123266697,-0.02309092879295349,-0.041370242834091187,0.9986449480056763,-0.00897750724107027,0.00828120019286871,0.0003409771015867591,-0.0970706194639206,0.0,"(0.0, 0.0)",True,False,1.5,1.5,1.0,0.12999999523162842,0.12999999523162842,0.10000000149011612
1642435551.7590818,8952,1642435551,263955542,mocap,-0.11495726555585861,0.08875230699777603,2.3860459327697754,-0.017562568187713623,-0.02480296976864338,-0.041300706565380096,0.9986844062805176,0.013922278769314289,-0.0009040673030540347,-2.9916756830061786e-05,-0.09683327376842499,0.0,"(0.0, 0.0)",True,False,1.5,1.5,1.0,0.12999999523162842,0.12999999523162842,0.10000000149011612
1642435551.7591085,8953,1642435551,272995334,mocap,-0.11150341480970383,0.09396836906671524,2.3803210258483887,-0.018727127462625504,-0.02418389730155468,-0.04132065549492836,0.998677670955658,0.0069712367840111256,0.0024748602882027626,8.778949995758012e-05,-0.09682770073413849,0.0,"(0.0, 0.0)",True,False,1.5,1.5,1.0,0.12999999523162842,0.12999999523162842,0.10000000149011612
1642435551.7591264,8954,1642435551,284642157,mocap,-0.11021032929420471,0.09683158248662949,2.3801231384277344,-0.019339414313435555,-0.02393951639533043,-0.041331902146339417,0.9986714124679565,0.0032716221176087856,0.0036293601151555777,0.00013326304906513542,-0.09680543094873428,0.0,"(0.0, 0.0)",True,False,1.5,1.5,1.0,0.12999999523162842,0.12999999523162842,0.10000000149011612
1642435551.7591374,8955,1642435551,292642990,mocap,-0.10984517633914948,0.09685704112052917,2.377493143081665,-0.01936936005949974,-0.02388964593410492,-0.04133182018995285,0.9986720085144043,0.0030860798433423042,0.003878382034599781,0.00014265485515352339,-0.09669941663742065,0.0,"(0.0, 0.0)",True,False,1.5,1.5,1.0,0.12999999523162842,0.12999999523162842,0.10000000149011612
1642435551.759158,8956,1642435551,304715907,mocap,-0.109717458486557,0.09627030044794083,2.3775768280029297,-0.019246943295001984,-0.02385706454515457,-0.04132828116416931,0.9986752867698669,0.003703696420416236,0.0039717708714306355,0.0001451270072720945,-0.09652917087078094,0.0,"(0.0, 0.0)",True,False,1.5,1.5,1.0,0.12999999523162842,0.12999999523162842,0.10000000149011612
1642435551.7591877,8957,1642435551,314286115,mocap,-0.10963618010282516,0.09590662270784378,2.3770692348480225,-0.019175587221980095,-0.02384202741086483,-0.041326284408569336,0.998677134513855,0.0040299673564732075,0.003966744989156723,0.00014438151265494525,-0.09639530628919601,0.0,"(0.0, 0.0)",True,False,1.5,1.5,1.0,0.12999999523162842,0.12999999523162842,0.10000000149011612
1642435551.7600155,8958,1642435551,325236532,mocap,-0.1120329201221466,0.08864687383174896,2.3831701278686523,-0.017587939277291298,-0.024220675230026245,-0.041292887181043625,0.9986986517906189,0.012884416617453098,0.0019446498481556773,6.454155663959682e-05,-0.09610459208488464,0.0,"(0.0, 0.0)",True,False,1.5,1.5,1.0,0.12999999523162842,0.12999999523162842,0.10000000149011612
1642435551.7600367,8959,1642435551,333136063,mocap,-0.11096769571304321,0.08825673907995224,2.383223533630371,-0.017515579238533974,-0.02399415709078312,-0.04128780961036682,0.9987055659294128,0.01290522888302803,0.003182412823662162,0.00010521960211917758,-0.09593343734741211,0.0,"(0.0, 0.0)",True,False,1.5,1.5,1.0,0.12999999523162842,0.12999999523162842,0.10000000149011612
1642435551.7600596,8960,1642435551,345601011,mocap,-0.10175733268260956,0.10582452267408371,2.3711791038513184,-0.021377215161919594,-0.022329891100525856,-0.04135248064994812,0.9986662864685059,-0.00941914040595293,0.011890835128724575,0.0004866780946031213,-0.09605998545885086,0.0,"(0.0, 0.0)",True,False,1.5,1.5,1.0,0.12999999523162842,0.12999999523162842,0.10000000149011612
1642435551.7600842,8961,1642435551,352518667,mocap,-0.10755026340484619,0.09363014996051788,2.3754687309265137,-0.018730053678154945,-0.023401223123073578,-0.04130839928984642,0.9986967444419861,0.006012910511344671,0.006013008300215006,0.00021371319598983973,-0.09638266265392303,0.0,"(0.0, 0.0)",True,False,1.5,1.5,1.0,0.12999999523162842,0.12999999523162842,0.10000000149011612
1642435551.7601054,8962,1642435551,363492886,mocap,-0.1050887182354927,0.1010696142911911,2.3699893951416016,-0.020358700305223465,-0.02300104685127735,-0.04134069383144379,0.9986728429794312,-0.0033393700141459703,0.007841665297746658,0.00030453020008280873,-0.096089668571949,0.0,"(0.0, 0.0)",True,False,1.5,1.5,1.0,0.12999999523162842,0.12999999523162842,0.10000000149011612
1642435551.7601366,8963,1642435551,372994344,mocap,-0.1068062111735344,0.09723185747861862,2.3705410957336426,-0.01953224092721939,-0.023324042558670044,-0.04132644832134247,0.99868243932724,0.0015158760361373425,0.005973238963633776,0.00022192965843714774,-0.09584958106279373,0.0,"(0.0, 0.0)",True,False,1.5,1.5,1.0,0.12999999523162842,0.12999999523162842,0.10000000149011612
1642435551.7601516,8964,1642435551,383701219,mocap,-0.10671231895685196,0.09368085861206055,2.3716163635253906,-0.018778590485453606,-0.023263543844223022,-0.04130738601088524,0.9986990690231323,0.005729804281145334,0.0062953210435807705,0.00022442912450060248,-0.0959680825471878,0.0,"(0.0, 0.0)",True,False,1.5,1.5,1.0,0.12999999523162842,0.12999999523162842,0.10000000149011612
1642435551.760765,8965,1642435551,392820334,mocap,-0.10512387752532959,0.09073302149772644,2.3722195625305176,-0.018169226124882698,-0.02289889007806778,-0.04128722846508026,0.9987196326255798,0.008948673494160175,0.008306322619318962,0.000286235474050045,-0.09750145673751831,0.0,"(0.0, 0.0)",True,False,1.5,1.5,1.0,0.12999999523162842,0.12999999523162842,0.10000000149011612
1642435551.7607775,8966,1642435551,404248824,mocap,-0.1102047711610794,0.08851151913404465,2.3782689571380615,-0.017612162977457047,-0.023886386305093765,-0.04128861427307129,0.9987064003944397,0.011959347873926163,0.0024676325265318155,8.208550570998341e-05,-0.09593906253576279,0.0,"(0.0, 0.0)",True,False,1.5,1.5,1.0,0.12999999523162842,0.12999999523162842,0.10000000149011612
1642435551.7607996,8967,1642435551,413320594,mocap,-0.11334268003702164,0.0787285640835762,2.3854572772979736,-0.015488086268305779,-0.024387069046497345,-0.04124286770820618,0.9987313747406006,0.02358161471784115,-9.718653745949268e-05,-2.815855623339303e-06,-0.09620407968759537,0.0,"(0.0, 0.0)",True,False,1.5,1.5,1.0,0.12999999523162842,0.12999999523162842,0.10000000149011612
1642435551.7608194,8968,1642435551,422808355,mocap,-0.11158386617898941,0.08076293021440506,2.3815553188323975,-0.015954716131091118,-0.024076279252767563,-0.04125048965215683,0.998731255531311,0.020348431542515755,0.0016396096907556057,4.907774564344436e-05,-0.0961185023188591,0.0,"(0.0, 0.0)",True,False,1.5,1.5,1.0,0.12999999523162842,0.12999999523162842,0.10000000149011612
1642435551.7608354,8969,1642435551,432512678,mocap,-0.10985361039638519,0.08450481295585632,2.3780064582824707,-0.016777917742729187,-0.023781416937708855,-0.04126672074198723,0.9987241625785828,0.015169008634984493,0.003148813499137759,9.95144946500659e-05,-0.09588265419006348,0.0,"(0.0, 0.0)",True,False,1.5,1.5,1.0,0.12999999523162842,0.12999999523162842,0.10000000149011612
1642435551.760865,8970,1642435551,443941167,mocap,-0.10935283452272415,0.08650568872690201,2.371966600418091,-0.017245227470993996,-0.023753700777888298,-0.04127771779894829,0.998716413974762,0.012238144874572754,0.0032483411487191916,0.00010570512677077204,-0.09576906263828278,0.0,"(0.0, 0.0)",True,False,1.5,1.5,1.0,0.12999999523162842,0.12999999523162842,0.10000000149011612
1642435551.760885,8971,1642435551,453161949,mocap,-0.10955283790826797,0.08621348440647125,2.368986129760742,-0.017203595489263535,-0.023823099210858345,-0.0412776954472065,0.9987155199050903,0.012217606417834759,0.0028382334858179092,9.210726420860738e-05,-0.09546765685081482,0.0,"(0.0, 0.0)",True,False,1.5,1.5,1.0,0.12999999523162842,0.12999999523162842,0.10000000149011612
1642435551.7613866,8972,1642435551,464527417,mocap,-0.1094837412238121,0.08484119176864624,2.3694896697998047,-0.016912061721086502,-0.02379181981086731,-0.04127013310790062,0.9987215399742126,0.013547202572226524,0.002990436740219593,9.53094131546095e-05,-0.09546656161546707,0.0,"(0.0, 0.0)",True,False,1.5,1.5,1.0,0.12999999523162842,0.12999999523162842,0.10000000149011612
1642435551.7614083,8973,1642435551,472988667,mocap,-0.10943195223808289,0.08375269919633865,2.372297763824463,-0.016663994640111923,-0.02374356985092163,-0.04126342386007309,0.9987271428108215,0.014514761976897717,0.0031633214093744755,9.926155325956643e-05,-0.09553628414869308,0.0,"(0.0, 0.0)",True,False,1.5,1.5,1.0,0.12999999523162842,0.12999999523162842,0.10000000149011612
1642435551.7614317,8974,1642435551,483234501,mocap,-0.1092672348022461,0.08302358537912369,2.3759639263153076,-0.016486966982483864,-0.02366626262664795,-0.0412580706179142,0.9987321496009827,0.015020382590591908,0.0034570854622870684,0.000107276500784792,-0.09561783075332642,0.0,"(0.0, 0.0)",True,False,1.5,1.5,1.0,0.12999999523162842,0.12999999523162842,0.10000000149011612
1642435551.7614546,8975,1642435551,493214865,mocap,-0.10187488049268723,0.09324489533901215,2.3672995567321777,-0.01876477152109146,-0.02228388376533985,-0.04129146784543991,0.9987223148345947,0.0015897832345217466,0.010843516327440739,0.0003871343797072768,-0.09672392904758453,0.0,"(0.0, 0.0)",True,False,1.5,1.5,1.0,0.12999999523162842,0.12999999523162842,0.10000000149011612
1642435551.7617993,8976,1642435551,503316167,mocap,-0.1028670147061348,0.09088364243507385,2.367562770843506,-0.01825692504644394,-0.022470099851489067,-0.04128268361091614,0.9987279772758484,0.004483911208808422,0.009609962813556194,0.00033318003988824785,-0.09718047082424164,0.0,"(0.0, 0.0)",True,False,1.5,1.5,1.0,0.12999999523162842,0.12999999523162842,0.10000000149011612
1642435551.761826,8977,1642435551,514178042,mocap,-0.10640715807676315,0.08666111528873444,2.366452693939209,-0.01734459213912487,-0.023190051317214966,-0.04127202183008194,0.9987282156944275,0.009734483435750008,0.005504759028553963,0.00018047820776700974,-0.09711360186338425,0.0,"(0.0, 0.0)",True,False,1.5,1.5,1.0,0.12999999523162842,0.12999999523162842,0.10000000149011612
1642435551.7618458,8978,1642435551,522305907,mocap,-0.1160065233707428,0.0731755793094635,2.3738760948181152,-0.014373946003615856,-0.025017524138092995,-0.04122224077582359,0.9987333416938782,0.02653711661696434,-0.004461377393454313,-0.00011908917804248631,-0.09571883827447891,0.0,"(0.0, 0.0)",True,False,1.5,1.5,1.0,0.12999999523162842,0.12999999523162842,0.10000000149011612
1642435551.7618651,8979,1642435551,534763146,mocap,-0.12037184089422226,0.07092341780662537,2.3724725246429443,-0.013870300725102425,-0.025929545983672142,-0.04121915251016617,0.9987173080444336,0.028875499963760376,-0.009334160014986992,-0.00023906395654194057,-0.09293954074382782,0.0,"(0.0, 0.0)",True,False,1.5,1.5,1.0,0.12999999523162842,0.12999999523162842,0.10000000149011612
1642435551.761887,8980,1642435551,544203355,mocap,-0.10416612774133682,0.08921410888433456,2.3597259521484375,-0.01795312389731407,-0.02280464395880699,-0.04128070920705795,0.998725950717926,0.004526013974100351,0.007931931875646114,0.0002699637843761593,-0.09536746889352798,0.0,"(0.0, 0.0)",True,False,1.5,1.5,1.0,0.12999999523162842,0.12999999523162842,0.10000000149011612
1642435551.762172,8981,1642435551,554641063,mocap,-0.10312490910291672,0.08976902812719345,2.3633580207824707,-0.01805201731622219,-0.022554857656359673,-0.04127923399209976,0.9987298846244812,0.0037391611840575933,0.009007370099425316,0.00030853174393996596,-0.09641857445240021,0.0,"(0.0, 0.0)",True,False,1.5,1.5,1.0,0.12999999523162842,0.12999999523162842,0.10000000149011612
1642435551.7621903,8982,1642435551,564303251,mocap,-0.10503590852022171,0.08604642748832703,2.370638132095337,-0.017197251319885254,-0.022855710238218307,-0.041263729333877563,0.9987388253211975,0.008417672477662563,0.007052387576550245,0.00022933032596483827,-0.0965283215045929,0.0,"(0.0, 0.0)",True,False,1.5,1.5,1.0,0.12999999523162842,0.12999999523162842,0.10000000149011612
1642435551.7622056,8983,1642435551,575353823,mocap,-0.11405650526285172,0.07928728312253952,2.377232313156128,-0.01565217599272728,-0.02462560497224331,-0.041249968111515045,0.9987226724624634,0.017211729660630226,-0.0029259040020406246,-8.56781261973083e-05,-0.09311257302761078,0.0,"(0.0, 0.0)",True,False,1.5,1.5,1.0,0.12999999523162842,0.12999999523162842,0.10000000149011612
1642435551.7622173,8984,1642435551,584944605,mocap,-0.11943504959344864,0.06871403753757477,2.3777966499328613,-0.013384731486439705,-0.025656625628471375,-0.04120355844497681,0.9987316727638245,0.029762158170342445,-0.008141652680933475,-0.0002007937291637063,-0.09146874397993088,0.0,"(0.0, 0.0)",True,False,1.5,1.5,1.0,0.12999999523162842,0.12999999523162842,0.10000000149011612
1642435551.7622356,8985,1642435551,594187261,mocap,-0.11673805117607117,0.07024216651916504,2.370359420776367,-0.013771970756351948,-0.02518327347934246,-0.0412086546421051,0.9987382292747498,0.026838328689336777,-0.005178513471037149,-0.00013192588812671602,-0.09077738225460052,0.0,"(0.0, 0.0)",True,False,1.5,1.5,1.0,0.12999999523162842,0.12999999523162842,0.10000000149011612
1642435551.7622645,8986,1642435551,605294032,mocap,-0.11336223781108856,0.07348448038101196,2.362344741821289,-0.014532804489135742,-0.024584440514445305,-0.04122133553028107,0.9987418055534363,0.021833511069417,-0.0016506623942404985,-4.464439189177938e-05,-0.09068264067173004,0.0,"(0.0, 0.0)",True,False,1.5,1.5,1.0,0.12999999523162842,0.12999999523162842,0.10000000149011612
1642435551.7624643,8987,1642435551,617341272,mocap,-0.11170252412557602,0.07578526437282562,2.361617088317871,-0.01503767166286707,-0.024261577054858208,-0.041230134665966034,0.998741865158081,0.018324168398976326,0.00011488940072013065,3.226396074751392e-06,-0.09066309034824371,0.0,"(0.0, 0.0)",True,False,1.5,1.5,1.0,0.12999999523162842,0.12999999523162842,0.10000000149011612
1642435551.7626786,8988,1642435551,624365751,mocap,-0.1108977198600769,0.07590540498495102,2.3624908924102783,-0.015064717270433903,-0.024083930999040604,-0.04122865945100784,0.9987457990646362,0.01762339659035206,0.0010841686744242907,3.052063402719796e-05,-0.09085065126419067,0.0,"(0.0, 0.0)",True,False,1.5,1.5,1.0,0.12999999523162842,0.12999999523162842,0.10000000149011612
1642435551.7626941,8989,1642435551,632848563,mocap,-0.11002185195684433,0.07672301679849625,2.3641042709350586,-0.015234685502946377,-0.0238899327814579,-0.041230469942092896,0.9987478256225586,0.01609218865633011,0.002065836451947689,5.8890818763757125e-05,-0.09086937457323074,0.0,"(0.0, 0.0)",True,False,1.5,1.5,1.0,0.12999999523162842,0.12999999523162842,0.10000000149011612
1642435551.7627196,8990,1642435551,643020438,mocap,-0.11038897186517715,0.07635737955570221,2.366382360458374,-0.015139778144657612,-0.023941153660416603,-0.041228774935007095,0.9987481236457825,0.016151433810591698,0.0016803942853584886,4.757693022838794e-05,-0.09084989130496979,0.0,"(0.0, 0.0)",True,False,1.5,1.5,1.0,0.12999999523162842,0.12999999523162842,0.10000000149011612
1642435551.7628617,8991,1642435551,653940386,mocap,-0.11106783151626587,0.07566004246473312,2.3649566173553467,-0.014995836652815342,-0.02409261092543602,-0.041227079927921295,0.9987466931343079,0.01658487506210804,0.0008387338020838797,2.3495176719734445e-05,-0.09080176055431366,0.0,"(0.0, 0.0)",True,False,1.5,1.5,1.0,0.12999999523162842,0.12999999523162842,0.10000000149011612
1642435551.7628784,8992,1642435551,663959813,mocap,-0.11157647520303726,0.0743277296423912,2.3594024181365967,-0.014745047315955162,-0.02424520254135132,-0.04122268781065941,0.998746931552887,0.017722083255648613,0.00013434885477181524,3.694393853947986e-06,-0.09069003909826279,0.0,"(0.0, 0.0)",True,False,1.5,1.5,1.0,0.12999999523162842,0.12999999523162842,0.10000000149011612
1642435551.7629426,8993,1642435551,673163355,mocap,-0.11292510479688644,0.0739930123090744,2.3535890579223633,-0.014698286540806293,-0.02458755299448967,-0.04122552275657654,0.9987391233444214,0.017708782106637955,-0.0016735141398385167,-4.5816090278094634e-05,-0.09048721939325333,0.0,"(0.0, 0.0)",True,False,1.5,1.5,1.0,0.12999999523162842,0.12999999523162842,0.10000000149011612
1642435551.7629633,8994,1642435551,683140594,mocap,-0.11339958012104034,0.07325762510299683,2.3528943061828613,-0.014542583376169205,-0.02468893863260746,-0.04122277721762657,0.9987390637397766,0.0181531123816967,-0.002159048803150654,-5.841832535224967e-05,-0.09053400158882141,0.0,"(0.0, 0.0)",True,False,1.5,1.5,1.0,0.12999999523162842,0.12999999523162842,0.10000000149011612
1642435551.7629793,8995,1642435551,692540230,mocap,-0.11259625107049942,0.07250740379095078,2.3537933826446533,-0.014385475777089596,-0.024503065273165703,-0.041216712445020676,0.9987461566925049,0.018485533073544502,-0.0010376983555033803,-2.7766953280661255e-05,-0.09044189751148224,0.0,"(0.0, 0.0)",True,False,1.5,1.5,1.0,0.12999999523162842,0.12999999523162842,0.10000000149011612
1642435551.7630224,8996,1642435551,703167626,mocap,-0.1112811416387558,0.07232934236526489,2.3592095375061035,-0.014326795004308224,-0.024167688563466072,-0.041211459785699844,0.9987553954124451,0.0181078240275383,0.0007705214666202664,2.0548310203594156e-05,-0.09044022858142853,0.0,"(0.0, 0.0)",True,False,1.5,1.5,1.0,0.12999999523162842,0.12999999523162842,0.10000000149011612
1642435551.763048,8997,1642435551,713509032,mocap,-0.11029718071222305,0.07173813879489899,2.3590517044067383,-0.014211708679795265,-0.023956425487995148,-0.04120625555515289,0.998762309551239,0.018244337290525436,0.00197063316591084,5.213307304074988e-05,-0.09040863066911697,0.0,"(0.0, 0.0)",True,False,1.5,1.5,1.0,0.12999999523162842,0.12999999523162842,0.10000000149011612
1642435551.7630656,8998,1642435551,723573459,mocap,-0.102092444896698,0.08320506662130356,2.3509652614593506,-0.016765203326940536,-0.022398240864276886,-0.041247203946113586,0.9987571835517883,0.003047189675271511,0.010333511978387833,0.000327475368976593,-0.0917416661977768,0.0,"(0.0, 0.0)",True,False,1.5,1.5,1.0,0.12999999523162842,0.12999999523162842,0.10000000149011612
1642435551.7630832,8999,1642435551,734026584,mocap,-0.104672372341156,0.07999207079410553,2.350381851196289,-0.01606481336057186,-0.022923171520233154,-0.041238050907850266,0.9987571835517883,0.007081411313265562,0.007241861429065466,0.00021904081222601235,-0.09193110466003418,0.0,"(0.0, 0.0)",True,False,1.5,1.5,1.0,0.12999999523162842,0.12999999523162842,0.10000000149011612
1642435551.7631097,9000,1642435551,744438719,mocap,-0.10899850726127625,0.0753219947218895,2.3520853519439697,-0.0150247011333704,-0.02378295361995697,-0.041224054992198944,0.9987537860870361,0.01294818613678217,0.0023507950827479362,6.604690861422569e-05,-0.0916561633348465,0.0,"(0.0, 0.0)",True,False,1.5,1.5,1.0,0.12999999523162842,0.12999999523162842,0.10000000149011612
1642435551.7631607,9001,1642435551,754563094,mocap,-0.12237057089805603,0.05477626621723175,2.3630127906799316,-0.010502372868359089,-0.02631618268787861,-0.04113328456878662,0.9987518191337585,0.03856048360466957,-0.01124094519764185,-0.00021182262571528554,-0.08972400426864624,0.0,"(0.0, 0.0)",True,False,1.5,1.5,1.0,0.12999999523162842,0.12999999523162842,0.10000000149011612
1642435551.788382,9002,1642435551,763878094,mocap,-0.12005788832902908,0.05697736516594887,2.3586528301239014,-0.011007503606379032,-0.025895295664668083,-0.04114347696304321,0.998757004737854,0.03459412232041359,-0.008565332740545273,-0.0001703498128335923,-0.08893785625696182,0.0,"(0.0, 0.0)",True,False,1.5,1.5,1.0,0.12999999523162842,0.12999999523162842,0.10000000149011612
1642435551.7953024,9003,1642435551,791003302,mocap,-0.10366827994585037,0.07772434502840042,2.3441083431243896,-0.015634704381227493,-0.02275138720870018,-0.04122575372457504,0.9987684488296509,0.006998996715992689,0.00873970054090023,0.0002569456410128623,-0.09051801264286041,0.0,"(0.0, 0.0)",True,False,1.5,1.5,1.0,0.12999999523162842,0.12999999523162842,0.10000000149011612
1642435551.7992206,9004,1642435551,791432000,mocap,-0.10169894248247147,0.07760291546583176,2.345329761505127,-0.015618628822267056,-0.022320037707686424,-0.041219860315322876,0.9987786412239075,0.006812050938606262,0.010944700799882412,0.0003218036436010152,-0.09123168885707855,0.0,"(0.0, 0.0)",True,False,1.5,1.5,1.0,0.12999999523162842,0.12999999523162842,0.10000000149011612
1642435551.802008,9005,1642435551,795715749,mocap,-0.11423872411251068,0.06149379163980484,2.3655500411987305,-0.01197907142341137,-0.0246332585811615,-0.041157837957143784,0.9987770915031433,0.027326466515660286,-0.002124809194356203,-4.6605684474343434e-05,-0.08986789733171463,0.0,"(0.0, 0.0)",True,False,1.5,1.5,1.0,0.12999999523162842,0.12999999523162842,0.10000000149011612
1642435551.8123832,9006,1642435551,805454604,mocap,-0.11517450213432312,0.06028847023844719,2.3664093017578125,-0.01171250268816948,-0.024811020120978355,-0.0411527045071125,0.9987760782241821,0.028065435588359833,-0.0030234784353524446,-6.466147169703618e-05,-0.0890159159898758,0.0,"(0.0, 0.0)",True,False,1.5,1.5,1.0,0.12999999523162842,0.12999999523162842,0.10000000149011612
1642435551.8185098,9007,1642435551,814080696,mocap,-0.11403967440128326,0.06222831457853317,2.3589065074920654,-0.012169686146080494,-0.024666760116815567,-0.04116291552782059,0.9987737536430359,0.02485433779656887,-0.0020674418192356825,-4.612994962371886e-05,-0.08869756758213043,0.0,"(0.0, 0.0)",True,False,1.5,1.5,1.0,0.12999999523162842,0.12999999523162842,0.10000000149011612
1642435551.828026,9008,1642435551,824121686,mocap,-0.1130514144897461,0.06275797635316849,2.348736047744751,-0.012343495152890682,-0.024568310007452965,-0.041166361421346664,0.9987739324569702,0.02336682565510273,-0.0012673950986936688,-2.8729595214826986e-05,-0.08880452066659927,0.0,"(0.0, 0.0)",True,False,1.5,1.5,1.0,0.12999999523162842,0.12999999523162842,0.10000000149011612
1642435551.838783,9009,1642435551,834069655,mocap,-0.11316339671611786,0.062251314520835876,2.3426873683929443,-0.012266446836292744,-0.0246510561555624,-0.041165199130773544,0.9987728595733643,0.02332403138279915,-0.001555333728902042,-3.500649472698569e-05,-0.08868127316236496,0.0,"(0.0, 0.0)",True,False,1.5,1.5,1.0,0.12999999523162842,0.12999999523162842,0.10000000149011612
1642435551.8488176,9010,1642435551,844401687,mocap,-0.11239955574274063,0.06172584369778633,2.343806743621826,-0.012155739590525627,-0.02447240985929966,-0.041160792112350464,0.9987788200378418,0.023199882358312607,-0.000507496704813093,-1.131741373683326e-05,-0.08859111368656158,0.0,"(0.0, 0.0)",True,False,1.5,1.5,1.0,0.12999999523162842,0.12999999523162842,0.10000000149011612
1642435551.858619,9011,1642435551,854365438,mocap,-0.1125069260597229,0.05967625975608826,2.349000930786133,-0.011693044565618038,-0.0244235098361969,-0.04114886745810509,0.9987860321998596,0.02506808005273342,-0.00023787363898009062,-5.08550738231861e-06,-0.08869119733572006,0.0,"(0.0, 0.0)",True,False,1.5,1.5,1.0,0.12999999523162842,0.12999999523162842,0.10000000149011612
1642435551.8651133,9012,1642435551,863212312,mocap,-0.11165883392095566,0.058712445199489594,2.353283405303955,-0.01147526130080223,-0.02419131062924862,-0.04114150255918503,0.9987944960594177,0.02547876536846161,0.001027793507091701,2.1544992705457844e-05,-0.08889219164848328,0.0,"(0.0, 0.0)",True,False,1.5,1.5,1.0,0.12999999523162842,0.12999999523162842,0.10000000149011612
1642435551.8785005,9013,1642435551,874761062,mocap,-0.11010178923606873,0.05908334255218506,2.3529183864593506,-0.011569558642804623,-0.023868529126048088,-0.04114104062318802,0.9988012313842773,0.024193087592720985,0.0028083764482289553,5.947361933067441e-05,-0.08888667821884155,0.0,"(0.0, 0.0)",True,False,1.5,1.5,1.0,0.12999999523162842,0.12999999523162842,0.10000000149011612
1642435551.8873973,9014,1642435551,883675385,mocap,-0.10875077545642853,0.06024983525276184,2.3511791229248047,-0.011837533675134182,-0.023609891533851624,-0.04114525020122528,0.9988040328025818,0.021989792585372925,0.004168366082012653,9.059612057171762e-05,-0.08879616111516953,0.0,"(0.0, 0.0)",True,False,1.5,1.5,1.0,0.12999999523162842,0.12999999523162842,0.10000000149011612
1642435551.8978643,9015,1642435551,893865229,mocap,-0.10910837352275848,0.05969611927866936,2.3464455604553223,-0.011740483343601227,-0.023728590458631516,-0.041143957525491714,0.9988024234771729,0.022029627114534378,0.0035048373974859715,7.546072447439656e-05,-0.08875994384288788,0.0,"(0.0, 0.0)",True,False,1.5,1.5,1.0,0.12999999523162842,0.12999999523162842,0.10000000149011612
1642435551.908356,9016,1642435551,905037260,mocap,-0.11035183072090149,0.05873643979430199,2.3443827629089355,-0.01153553370386362,-0.02400541678071022,-0.041141390800476074,0.9987983107566833,0.022673001512885094,0.0019243390997871757,4.05997852794826e-05,-0.08865055441856384,0.0,"(0.0, 0.0)",True,False,1.5,1.5,1.0,0.12999999523162842,0.12999999523162842,0.10000000149011612
1642435551.9186807,9017,1642435551,914119552,mocap,-0.10266081988811493,0.0691988542675972,2.3328380584716797,-0.013897721655666828,-0.02257193997502327,-0.04118334874510765,0.9987999200820923,0.008515838533639908,0.009741188026964664,0.0002526802127249539,-0.08988012373447418,0.0,"(0.0, 0.0)",True,False,1.5,1.5,1.0,0.12999999523162842,0.12999999523162842,0.10000000149011612
1642435551.926366,9018,1642435551,923967573,mocap,-0.11200521886348724,0.05458339303731918,2.3452353477478027,-0.0106336809694767,-0.02431209571659565,-0.04112175852060318,0.9988017082214355,0.026983750984072685,3.1132265576161444e-05,5.998982715027523e-07,-0.08915401250123978,0.0,"(0.0, 0.0)",True,False,1.5,1.5,1.0,0.12999999523162842,0.12999999523162842,0.10000000149011612
1642435551.9375196,9019,1642435551,935500177,mocap,-0.10318788886070251,0.0647667944431305,2.341564178466797,-0.012897773645818233,-0.022561823949217796,-0.041160210967063904,0.9988145232200623,0.01304557640105486,0.00949811190366745,0.00022738480765838176,-0.09021665155887604,0.0,"(0.0, 0.0)",True,False,1.5,1.5,1.0,0.12999999523162842,0.12999999523162842,0.10000000149011612
1642435551.94499,9020,1642435551,942723458,mocap,-0.11077527701854706,0.05111098662018776,2.3548104763031006,-0.00986632052809,-0.023923298344016075,-0.04110017418861389,0.998819887638092,0.029951153323054314,0.0019061273196712136,3.386548632988706e-05,-0.08952254056930542,0.0,"(0.0, 0.0)",True,False,1.5,1.5,1.0,0.12999999523162842,0.12999999523162842,0.10000000149011612
1642435551.958111,9021,1642435551,953823875,mocap,-0.110662542283535,0.04961349815130234,2.3575549125671387,-0.009539149701595306,-0.023858796805143356,-0.04109182953834534,0.9988248944282532,0.03089859150350094,0.002225256757810712,3.809123518294655e-05,-0.08932743221521378,0.0,"(0.0, 0.0)",True,False,1.5,1.5,1.0,0.12999999523162842,0.12999999523162842,0.10000000149011612
1642435551.9680626,9022,1642435551,963922781,mocap,-0.10972738265991211,0.05155494064092636,2.3550403118133545,-0.009968684054911137,-0.0237030740827322,-0.041101112961769104,0.9988240599632263,0.0276237353682518,0.002998413983732462,5.3939278586767614e-05,-0.08935059607028961,0.0,"(0.0, 0.0)",True,False,1.5,1.5,1.0,0.12999999523162842,0.12999999523162842,0.10000000149011612
1642435551.9758015,9023,1642435551,973250698,mocap,-0.10630717128515244,0.060660187155008316,2.343574047088623,-0.011985089629888535,-0.023170333355665207,-0.04114479571580887,0.9988126158714294,0.015535855665802956,0.005732700228691101,0.0001264924358110875,-0.08872799575328827,0.0,"(0.0, 0.0)",True,False,1.5,1.5,1.0,0.12999999523162842,0.12999999523162842,0.10000000149011612
1642435551.9859004,9024,1642435551,983644812,mocap,-0.10358777642250061,0.06508968770503998,2.336164712905884,-0.012992783449590206,-0.022701987996697426,-0.04116382077336311,0.9988099932670593,0.009386955760419369,0.008161465637385845,0.0001968434953596443,-0.08872281759977341,0.0,"(0.0, 0.0)",True,False,1.5,1.5,1.0,0.12999999523162842,0.12999999523162842,0.10000000149011612
1642435551.9944103,9025,1642435551,992468094,mocap,-0.11023210734128952,0.04753322899341583,2.343712568283081,-0.009156573563814163,-0.023889947682619095,-0.04108278080821037,0.998828113079071,0.03104862943291664,0.0019029697868973017,3.111386831733398e-05,-0.08915937691926956,0.0,"(0.0, 0.0)",True,False,1.5,1.5,1.0,0.12999999523162842,0.12999999523162842,0.10000000149011612
1642435552.0049288,9026,1642435552,2684969,mocap,-0.1098320484161377,0.04513237252831459,2.348459243774414,-0.008631887845695019,-0.023736126720905304,-0.04106922820210457,0.9988370537757874,0.03303408995270729,0.0027250132989138365,4.172973058302887e-05,-0.08946260064840317,0.0,"(0.0, 0.0)",True,False,1.5,1.5,1.0,0.12999999523162842,0.12999999523162842,0.10000000149011612
1642435552.0148332,9027,1642435552,12651167,mocap,-0.10828901827335358,0.046642642468214035,2.352287769317627,-0.008951766416430473,-0.023383712396025658,-0.04107477888464928,0.9988422989845276,0.03013143315911293,0.0044695110991597176,7.143120456021279e-05,-0.0897783413529396,0.0,"(0.0, 0.0)",True,False,1.5,1.5,1.0,0.12999999523162842,0.12999999523162842,0.10000000149011612
1642435552.0265052,9028,1642435552,23623562,mocap,-0.10758847743272781,0.04884685203433037,2.3534820079803467,-0.009420518763363361,-0.0232425294816494,-0.041084952652454376,0.998840868473053,0.02657274156808853,0.00499794352799654,8.46184921101667e-05,-0.09022064507007599,0.0,"(0.0, 0.0)",True,False,1.5,1.5,1.0,0.12999999523162842,0.12999999523162842,0.10000000149011612
1642435552.0371587,9029,1642435552,34464812,mocap,-0.10666114091873169,0.05106787383556366,2.352130651473999,-0.009905045852065086,-0.02307853102684021,-0.04109521210193634,0.9988395571708679,0.0230377409607172,0.005690310150384903,0.00010192976333200932,-0.09026322513818741,0.0,"(0.0, 0.0)",True,False,1.5,1.5,1.0,0.12999999523162842,0.12999999523162842,0.10000000149011612
1642435552.046036,9030,1642435552,43267625,mocap,-0.10611436516046524,0.05005291476845741,2.3488242626190186,-0.009708342142403126,-0.022986188530921936,-0.0410899743437767,0.9988438487052917,0.023567602038383484,0.0061798677779734135,0.00010831491090357304,-0.09043709188699722,0.0,"(0.0, 0.0)",True,False,1.5,1.5,1.0,0.12999999523162842,0.12999999523162842,0.10000000149011612
1642435552.057472,9031,1642435552,53869864,mocap,-0.10617120563983917,0.04843428358435631,2.3454220294952393,-0.009377721697092056,-0.023017557337880135,-0.0410824790596962,0.9988465905189514,0.024860329926013947,0.005985523108392954,0.00010093633318319917,-0.09073999524116516,0.0,"(0.0, 0.0)",True,False,1.5,1.5,1.0,0.12999999523162842,0.12999999523162842,0.10000000149011612
1642435552.068652,9032,1642435552,64213719,mocap,-0.10180895030498505,0.058073315769433975,2.3370745182037354,-0.011506948620080948,-0.02225298434495926,-0.04112556204199791,0.9988398551940918,0.012041512876749039,0.009846021421253681,0.00020857274648733437,-0.09085220098495483,0.0,"(0.0, 0.0)",True,False,1.5,1.5,1.0,0.12999999523162842,0.12999999523162842,0.10000000149011612
1642435552.0775352,9033,1642435552,74410385,mocap,-0.10781566798686981,0.0434006005525589,2.3427531719207764,-0.008302180096507072,-0.023349950090050697,-0.04105924069881439,0.9988493323326111,0.030054859817028046,0.003960630390793085,5.8165147493127733e-05,-0.09100285172462463,0.0,"(0.0, 0.0)",True,False,1.5,1.5,1.0,0.12999999523162842,0.12999999523162842,0.10000000149011612
1642435552.087107,9034,1642435552,83410750,mocap,-0.10707023739814758,0.04344938322901726,2.3490073680877686,-0.008297114633023739,-0.023130161687731743,-0.041057925671339035,0.9988545179367065,0.02909073792397976,0.004942020401358604,7.261613791342825e-05,-0.09137416630983353,0.0,"(0.0, 0.0)",True,False,1.5,1.5,1.0,0.12999999523162842,0.12999999523162842,0.10000000149011612
1642435552.0966752,9035,1642435552,93998875,mocap,-0.10660838335752487,0.04059162735939026,2.350703001022339,-0.00768890930339694,-0.022990910336375237,-0.04104304313659668,0.9988632202148438,0.03164401277899742,0.005685439798980951,7.669065234949812e-05,-0.09185308963060379,0.0,"(0.0, 0.0)",True,False,1.5,1.5,1.0,0.12999999523162842,0.12999999523162842,0.10000000149011612
1642435552.1053345,9036,1642435552,102878875,mocap,-0.10459229350090027,0.04179118201136589,2.3501970767974854,-0.00796300545334816,-0.02257866971194744,-0.04104728624224663,0.998870313167572,0.029111221432685852,0.007797131314873695,0.00010971004667226225,-0.09211575239896774,0.0,"(0.0, 0.0)",True,False,1.5,1.5,1.0,0.12999999523162842,0.12999999523162842,0.10000000149011612
1642435552.1186984,9037,1642435552,113583875,mocap,-0.1039423793554306,0.042358335107564926,2.3493361473083496,-0.008092090487480164,-0.022453948855400085,-0.041049569845199585,0.9988719820976257,0.02753717266023159,0.00826526340097189,0.00011851407180074602,-0.0923604667186737,0.0,"(0.0, 0.0)",True,False,1.5,1.5,1.0,0.12999999523162842,0.12999999523162842,0.10000000149011612
1642435552.1254582,9038,1642435552,123231687,mocap,-0.10378289967775345,0.045159365981817245,2.3485162258148193,-0.008691197261214256,-0.02245214208960533,-0.04106316342949867,0.9988664388656616,0.023389967158436775,0.0079190069809556,0.00012303594849072397,-0.09288345277309418,0.0,"(0.0, 0.0)",True,False,1.5,1.5,1.0,0.12999999523162842,0.12999999523162842,0.10000000149011612
1642435552.1354518,9039,1642435552,133243250,mocap,-0.09632635116577148,0.055387213826179504,2.338698625564575,-0.010975437238812447,-0.02104565128684044,-0.0411035381257534,0.9988729357719421,0.009627732448279858,0.015369798988103867,0.00031075914739631116,-0.09451185911893845,0.0,"(0.0, 0.0)",True,False,1.5,1.5,1.0,0.12999999523162842,0.12999999523162842,0.10000000149011612
1642435552.1475363,9040,1642435552,144255229,mocap,-0.09830785542726517,0.05109446495771408,2.3371741771698,-0.010048771277070045,-0.021444756537675858,-0.04108667001128197,0.998874843120575,0.014730273745954037,0.0129301268607378,0.00023705205239821225,-0.09499172121286392,0.0,"(0.0, 0.0)",True,False,1.5,1.5,1.0,0.12999999523162842,0.12999999523162842,0.10000000149011612
1642435552.155147,9041,1642435552,152642104,mocap,-0.10923127830028534,0.033483296632766724,2.3482282161712646,-0.0061639235354959965,-0.023510264232754707,-0.04100939631462097,0.9988631010055542,0.03662051633000374,0.0015078822616487741,1.5678704585297965e-05,-0.09394744038581848,0.0,"(0.0, 0.0)",True,False,1.5,1.5,1.0,0.12999999523162842,0.12999999523162842,0.10000000149011612
1642435552.1683784,9042,1642435552,163927364,mocap,-0.10416266322135925,0.041589442640542984,2.3428962230682373,-0.007948625832796097,-0.022555770352482796,-0.04104684665799141,0.9988709688186646,0.025334257632493973,0.006564081646502018,9.218387276632711e-05,-0.09341388195753098,0.0,"(0.0, 0.0)",True,False,1.5,1.5,1.0,0.12999999523162842,0.12999999523162842,0.10000000149011612
1642435552.1762154,9043,1642435552,173109187,mocap,-0.10772359371185303,0.030690724030137062,2.354388475418091,-0.005569465924054384,-0.023105619475245476,-0.04099424183368683,0.9988766312599182,0.03801568225026131,0.0035556999500840902,3.286343417130411e-05,-0.09358835965394974,0.0,"(0.0, 0.0)",True,False,1.5,1.5,1.0,0.12999999523162842,0.12999999523162842,0.10000000149011612
1642435552.1865537,9044,1642435552,183778562,mocap,-0.1062464639544487,0.0309897493571043,2.354665517807007,-0.005645150784403086,-0.022792832925915718,-0.04099511727690697,0.9988834261894226,0.036400165408849716,0.005190121475607157,4.888727926299907e-05,-0.09384407103061676,0.0,"(0.0, 0.0)",True,False,1.5,1.5,1.0,0.12999999523162842,0.12999999523162842,0.10000000149011612
1642435552.1965187,9045,1642435552,193601896,mocap,-0.1046835407614708,0.034050654619932175,2.350170850753784,-0.0063194031827151775,-0.02253136783838272,-0.04100967198610306,0.9988846778869629,0.03159678727388382,0.0064684548415243626,6.978506280574948e-05,-0.09421270340681076,0.0,"(0.0, 0.0)",True,False,1.5,1.5,1.0,0.12999999523162842,0.12999999523162842,0.10000000149011612
1642435552.2069113,9046,1642435552,203367260,mocap,-0.10391206294298172,0.03484741598367691,2.3446409702301025,-0.006510613486170769,-0.022427327930927277,-0.041013628244400024,0.9988856315612793,0.029738949611783028,0.006968213710933924,7.789945811964571e-05,-0.09427813440561295,0.0,"(0.0, 0.0)",True,False,1.5,1.5,1.0,0.12999999523162842,0.12999999523162842,0.10000000149011612
1642435552.2193851,9047,1642435552,214413406,mocap,-0.10409263521432877,0.03544420003890991,2.3431148529052734,-0.006640295498073101,-0.02248549647629261,-0.04101677983999252,0.9988833665847778,0.028185466304421425,0.006439544260501862,7.362823816947639e-05,-0.09444208443164825,0.0,"(0.0, 0.0)",True,False,1.5,1.5,1.0,0.12999999523162842,0.12999999523162842,0.10000000149011612
1642435552.226581,9048,1642435552,223852156,mocap,-0.1045413389801979,0.03376449644565582,2.342799425125122,-0.006279566325247288,-0.02256941609084606,-0.04100889712572098,0.9988841414451599,0.029468849301338196,0.005872600246220827,6.287074938882142e-05,-0.09479478001594543,0.0,"(0.0, 0.0)",True,False,1.5,1.5,1.0,0.12999999523162842,0.12999999523162842,0.10000000149011612
1642435552.2379801,9049,1642435552,233705698,mocap,-0.09941352903842926,0.04249771684408188,2.3392603397369385,-0.008196917362511158,-0.02158667892217636,-0.04104720428586006,0.9988903403282166,0.017636042088270187,0.01091464702039957,0.00015956212882883847,-0.09467969089746475,0.0,"(0.0, 0.0)",True,False,1.5,1.5,1.0,0.12999999523162842,0.12999999523162842,0.10000000149011612
1642435552.2485101,9050,1642435552,245573771,mocap,-0.09989892691373825,0.040648359805345535,2.342186212539673,-0.007788515649735928,-0.021647028625011444,-0.041038595139980316,0.9988926649093628,0.019397461786866188,0.010268289595842361,0.00014167836343403906,-0.09482048451900482,0.0,"(0.0, 0.0)",True,False,1.5,1.5,1.0,0.12999999523162842,0.12999999523162842,0.10000000149011612
1642435552.2578259,9051,1642435552,254506531,mocap,-0.10635504126548767,0.022922730073332787,2.3492181301116943,-0.003944190219044685,-0.022798804566264153,-0.040956176817417145,0.9988930225372314,0.04069957882165909,0.004188815597444773,2.5210758394678123e-05,-0.09540502727031708,0.0,"(0.0, 0.0)",True,False,1.5,1.5,1.0,0.12999999523162842,0.12999999523162842,0.10000000149011612
1642435552.269752,9052,1642435552,266812209,mocap,-0.10648005455732346,0.022437479346990585,2.3461222648620605,-0.003845099126920104,-0.022851189598441124,-0.04095396026968956,0.9988923072814941,0.04018807038664818,0.003867468796670437,2.2494103177450597e-05,-0.09552610665559769,0.0,"(0.0, 0.0)",True,False,1.5,1.5,1.0,0.12999999523162842,0.12999999523162842,0.10000000149011612
1642435552.2777374,9053,1642435552,272943510,mocap,-0.10517176985740662,0.02388426661491394,2.3413331508636475,-0.004172744695097208,-0.022631928324699402,-0.04096117988228798,0.9988957047462463,0.03738027438521385,0.005046979524195194,3.2750278478488326e-05,-0.09557366371154785,0.0,"(0.0, 0.0)",True,False,1.5,1.5,1.0,0.12999999523162842,0.12999999523162842,0.10000000149011612
1642435552.2864852,9054,1642435552,281796271,mocap,-0.09601443260908127,0.038760602474212646,2.333207368850708,-0.007449421100318432,-0.020883755758404732,-0.041027504950761795,0.99891197681427,0.01744864135980606,0.014235198497772217,0.0001876480528153479,-0.09704028069972992,0.0,"(0.0, 0.0)",True,False,1.5,1.5,1.0,0.12999999523162842,0.12999999523162842,0.10000000149011612
1642435552.2931607,9055,1642435552,290961636,mocap,-0.10035842657089233,0.034958310425281525,2.3371243476867676,-0.006586725357919931,-0.021742381155490875,-0.041012708097696304,0.9989003539085388,0.02199668064713478,0.009074429050087929,0.00010333316458854824,-0.09576885402202606,0.0,"(0.0, 0.0)",True,False,1.5,1.5,1.0,0.12999999523162842,0.12999999523162842,0.10000000149011612
