Time,header.seq,header.stamp.secs,header.stamp.nsecs,header.frame_id,rpm_0,rpm_1,rpm_2,rpm_3,aux.current_yaw,aux.kf_correction,aux.angle_corrections,aux.enable_motors,aux.use_external_yaw
1642435551.749368,10870,1642435550,756186011,,9284.0,8288.0,8772.0,9432.0,0.0,0.0,"(0.0, 0.0)",False,False
1642435551.7493854,10871,1642435550,766211636,,9320.0,8304.0,8704.0,9448.0,0.0,0.0,"(0.0, 0.0)",False,False
1642435551.749395,10872,1642435550,776202365,,9256.0,8256.0,8692.0,9420.0,0.0,0.0,"(0.0, 0.0)",False,False
1642435551.7494268,10873,1642435550,786236428,,9272.0,8320.0,8724.0,9392.0,0.0,0.0,"(0.0, 0.0)",False,False
1642435551.7494488,10874,1642435550,796205959,,9224.0,8288.0,8724.0,9372.0,0.0,0.0,"(0.0, 0.0)",False,False
1642435551.7494605,10875,1642435550,806334136,,9260.0,8336.0,8720.0,9388.0,0.0,0.0,"(0.0, 0.0)",False,False
1642435551.749487,10876,1642435550,816201167,,9292.0,8304.0,8692.0,9408.0,0.0,0.0,"(0.0, 0.0)",False,False
1642435551.7495003,10877,1642435550,826240907,,9324.0,8356.0,8700.0,9440.0,0.0,0.0,"(0.0, 0.0)",False,False
1642435551.7495127,10878,1642435550,836200855,,9264.0,8308.0,8712.0,9424.0,0.0,0.0,"(0.0, 0.0)",False,False
1642435551.7495332,10879,1642435550,846197834,,9256.0,8332.0,8772.0,9404.0,0.0,0.0,"(0.0, 0.0)",False,False
1642435551.7495549,10880,1642435550,856405125,,9192.0,8316.0,8784.0,9444.0,0.0,0.0,"(0.0, 0.0)",False,False
1642435551.749577,10881,1642435550,866233928,,9200.0,8280.0,8824.0,9412.0,0.0,0.0,"(0.0, 0.0)",False,False
1642435551.7495992,10882,1642435550,876225698,,9212.0,8344.0,8792.0,9416.0,0.0,0.0,"(0.0, 0.0)",False,False
1642435551.749624,10883,1642435550,886277105,,9256.0,8348.0,8748.0,9428.0,0.0,0.0,"(0.0, 0.0)",False,False
1642435551.749644,10884,1642435550,896228667,,9216.0,8380.0,8776.0,9352.0,0.0,0.0,"(0.0, 0.0)",False,False
1642435551.7496805,10885,1642435550,906435282,,9220.0,8332.0,8772.0,9364.0,0.0,0.0,"(0.0, 0.0)",False,False
1642435551.7497106,10886,1642435550,916274761,,9216.0,8300.0,8752.0,9380.0,0.0,0.0,"(0.0, 0.0)",False,False
1642435551.749725,10887,1642435550,926265021,,9296.0,8316.0,8740.0,9360.0,0.0,0.0,"(0.0, 0.0)",False,False
1642435551.7497509,10888,1642435550,936530803,,9264.0,8360.0,8696.0,9408.0,0.0,0.0,"(0.0, 0.0)",False,False
1642435551.7497795,10889,1642435550,946215855,,9276.0,8340.0,8724.0,9348.0,0.0,0.0,"(0.0, 0.0)",False,False
1642435551.7497964,10890,1642435550,956386375,,9264.0,8360.0,8768.0,9380.0,0.0,0.0,"(0.0, 0.0)",False,False
1642435551.7498174,10891,1642435550,966273771,,9232.0,8360.0,8816.0,9380.0,0.0,0.0,"(0.0, 0.0)",False,False
1642435551.7498357,10892,1642435550,976247886,,9208.0,8336.0,8784.0,9420.0,0.0,0.0,"(0.0, 0.0)",False,False
1642435551.7498612,10893,1642435550,986193407,,9188.0,8356.0,8812.0,9396.0,0.0,0.0,"(0.0, 0.0)",False,False
1642435551.7498953,10894,1642435550,996253250,,9244.0,8324.0,8772.0,9376.0,0.0,0.0,"(0.0, 0.0)",False,False
1642435551.7499208,10895,1642435551,6275386,,9188.0,8332.0,8744.0,9440.0,0.0,0.0,"(0.0, 0.0)",False,False
1642435551.7499444,10896,1642435551,16308719,,9220.0,8308.0,8788.0,9432.0,0.0,0.0,"(0.0, 0.0)",False,False
1642435551.7499568,10897,1642435551,26163407,,9172.0,8300.0,8876.0,9384.0,0.0,0.0,"(0.0, 0.0)",False,False
1642435551.749971,10898,1642435551,36228875,,9132.0,8340.0,8760.0,9388.0,0.0,0.0,"(0.0, 0.0)",False,False
1642435551.7499866,10899,1642435551,46223355,,9236.0,8348.0,8764.0,9392.0,0.0,0.0,"(0.0, 0.0)",False,False
1642435551.75,10900,1642435551,56363771,,9268.0,8316.0,8744.0,9364.0,0.0,0.0,"(0.0, 0.0)",False,False
1642435551.7500231,10901,1642435551,66254865,,9272.0,8368.0,8692.0,9440.0,0.0,0.0,"(0.0, 0.0)",False,False
1642435551.7500439,10902,1642435551,76234709,,9248.0,8412.0,8692.0,9388.0,0.0,0.0,"(0.0, 0.0)",False,False
1642435551.7500818,10903,1642435551,86212417,,9284.0,8368.0,8716.0,9404.0,0.0,0.0,"(0.0, 0.0)",False,False
1642435551.7501028,10904,1642435551,96247105,,9252.0,8356.0,8760.0,9424.0,0.0,0.0,"(0.0, 0.0)",False,False
1642435551.7501256,10905,1642435551,106186219,,9216.0,8348.0,8752.0,9408.0,0.0,0.0,"(0.0, 0.0)",False,False
1642435551.750144,10906,1642435551,116313980,,9232.0,8352.0,8796.0,9444.0,0.0,0.0,"(0.0, 0.0)",False,False
1642435551.7501895,10907,1642435551,126217261,,9212.0,8364.0,8744.0,9400.0,0.0,0.0,"(0.0, 0.0)",False,False
1642435551.7502215,10908,1642435551,136161219,,9228.0,8360.0,8748.0,9376.0,0.0,0.0,"(0.0, 0.0)",False,False
1642435551.7502468,10909,1642435551,146194500,,9268.0,8356.0,8740.0,9344.0,0.0,0.0,"(0.0, 0.0)",False,False
1642435551.7502656,10910,1642435551,156282000,,9232.0,8328.0,8696.0,9372.0,0.0,0.0,"(0.0, 0.0)",False,False
1642435551.7502816,10911,1642435551,166207990,,9260.0,8336.0,8736.0,9428.0,0.0,0.0,"(0.0, 0.0)",False,False
1642435551.7503216,10912,1642435551,176191948,,9240.0,8392.0,8736.0,9348.0,0.0,0.0,"(0.0, 0.0)",False,False
1642435551.7503636,10913,1642435551,186196428,,9240.0,8388.0,8692.0,9380.0,0.0,0.0,"(0.0, 0.0)",False,False
1642435551.7503943,10914,1642435551,196199344,,9244.0,8384.0,8704.0,9352.0,0.0,0.0,"(0.0, 0.0)",False,False
1642435551.750456,10915,1642435551,206253875,,9248.0,8392.0,8724.0,9340.0,0.0,0.0,"(0.0, 0.0)",False,False
1642435551.7504776,10916,1642435551,216393719,,9244.0,8388.0,8716.0,9348.0,0.0,0.0,"(0.0, 0.0)",False,False
1642435551.7504964,10917,1642435551,226670439,,9248.0,8380.0,8724.0,9344.0,0.0,0.0,"(0.0, 0.0)",False,False
1642435551.7505229,10918,1642435551,236591533,,9228.0,8400.0,8708.0,9392.0,0.0,0.0,"(0.0, 0.0)",False,False
1642435551.7505462,10919,1642435551,246187417,,9232.0,8376.0,8692.0,9380.0,0.0,0.0,"(0.0, 0.0)",False,False
1642435551.7505636,10920,1642435551,256198042,,9212.0,8392.0,8704.0,9412.0,0.0,0.0,"(0.0, 0.0)",False,False
1642435551.7505896,10921,1642435551,266355750,,9244.0,8412.0,8688.0,9356.0,0.0,0.0,"(0.0, 0.0)",False,False
1642435551.7506037,10922,1642435551,276230230,,9252.0,8356.0,8728.0,9396.0,0.0,0.0,"(0.0, 0.0)",False,False
1642435551.7506223,10923,1642435551,286200125,,9212.0,8412.0,8712.0,9320.0,0.0,0.0,"(0.0, 0.0)",False,False
1642435551.7506425,10924,1642435551,296181115,,9260.0,8396.0,8676.0,9384.0,0.0,0.0,"(0.0, 0.0)",False,False
1642435551.7506835,10925,1642435551,306172000,,9252.0,8408.0,8652.0,9380.0,0.0,0.0,"(0.0, 0.0)",False,False
1642435551.7507136,10926,1642435551,316223146,,9260.0,8428.0,8692.0,9332.0,0.0,0.0,"(0.0, 0.0)",False,False
1642435551.7507246,10927,1642435551,326239032,,9256.0,8384.0,8668.0,9376.0,0.0,0.0,"(0.0, 0.0)",False,False
1642435551.7507486,10928,1642435551,336489085,,9252.0,8388.0,8688.0,9384.0,0.0,0.0,"(0.0, 0.0)",False,False
1642435551.7507668,10929,1642435551,346531064,,9272.0,8376.0,8716.0,9360.0,0.0,0.0,"(0.0, 0.0)",False,False
1642435551.7507958,10930,1642435551,356223355,,9280.0,8368.0,8696.0,9332.0,0.0,0.0,"(0.0, 0.0)",False,False
1642435551.750811,10931,1642435551,366338094,,9224.0,8340.0,8720.0,9428.0,0.0,0.0,"(0.0, 0.0)",False,False
1642435551.7508247,10932,1642435551,376225542,,9220.0,8364.0,8676.0,9420.0,0.0,0.0,"(0.0, 0.0)",False,False
1642435551.7508557,10933,1642435551,386179553,,9196.0,8344.0,8704.0,9396.0,0.0,0.0,"(0.0, 0.0)",False,False
1642435551.7508786,10934,1642435551,396218667,,9208.0,8352.0,8676.0,9416.0,0.0,0.0,"(0.0, 0.0)",False,False
1642435551.7508998,10935,1642435551,406192521,,9212.0,8332.0,8664.0,9372.0,0.0,0.0,"(0.0, 0.0)",False,False
1642435551.7509227,10936,1642435551,416234709,,9220.0,8324.0,8676.0,9344.0,0.0,0.0,"(0.0, 0.0)",False,False
1642435551.753995,10937,1642435551,426190959,,9288.0,8388.0,8664.0,9444.0,0.0,0.0,"(0.0, 0.0)",False,False
1642435551.754008,10938,1642435551,437428095,,9320.0,8404.0,8652.0,9364.0,0.0,0.0,"(0.0, 0.0)",False,False
1642435551.7540212,10939,1642435551,446204084,,9340.0,8396.0,8620.0,9348.0,0.0,0.0,"(0.0, 0.0)",False,False
1642435551.754036,10940,1642435551,456213511,,9300.0,8408.0,8632.0,9348.0,0.0,0.0,"(0.0, 0.0)",False,False
1642435551.754053,10941,1642435551,466209084,,9268.0,8380.0,8692.0,9400.0,0.0,0.0,"(0.0, 0.0)",False,False
1642435551.7540653,10942,1642435551,476280021,,9224.0,8360.0,8708.0,9396.0,0.0,0.0,"(0.0, 0.0)",False,False
1642435551.7540865,10943,1642435551,486194344,,9196.0,8304.0,8700.0,9440.0,0.0,0.0,"(0.0, 0.0)",False,False
1642435551.7541027,10944,1642435551,496186271,,9168.0,8316.0,8724.0,9436.0,0.0,0.0,"(0.0, 0.0)",False,False
1642435551.7541156,10945,1642435551,506218771,,9256.0,8316.0,8676.0,9392.0,0.0,0.0,"(0.0, 0.0)",False,False
1642435551.754184,10946,1642435551,516183511,,9216.0,8312.0,8692.0,9380.0,0.0,0.0,"(0.0, 0.0)",False,False
1642435551.7542448,10947,1642435551,526169761,,9192.0,8340.0,8716.0,9408.0,0.0,0.0,"(0.0, 0.0)",False,False
1642435551.7542903,10948,1642435551,536677730,,9212.0,8304.0,8680.0,9340.0,0.0,0.0,"(0.0, 0.0)",False,False
1642435551.7543929,10949,1642435551,546310073,,9316.0,8344.0,8648.0,9356.0,0.0,0.0,"(0.0, 0.0)",False,False
1642435551.7545397,10950,1642435551,556199709,,9320.0,8388.0,8640.0,9316.0,0.0,0.0,"(0.0, 0.0)",False,False
1642435551.7545843,10951,1642435551,566286844,,9292.0,8336.0,8584.0,9304.0,0.0,0.0,"(0.0, 0.0)",False,False
1642435551.7546136,10952,1642435551,576413407,,9244.0,8388.0,8620.0,9336.0,0.0,0.0,"(0.0, 0.0)",False,False
1642435551.7546477,10953,1642435551,586295125,,9252.0,8384.0,8648.0,9376.0,0.0,0.0,"(0.0, 0.0)",False,False
1642435551.754659,10954,1642435551,596217625,,9192.0,8364.0,8640.0,9428.0,0.0,0.0,"(0.0, 0.0)",False,False
1642435551.7546983,10955,1642435551,606275855,,9240.0,8372.0,8644.0,9428.0,0.0,0.0,"(0.0, 0.0)",False,False
1642435551.7547448,10956,1642435551,616198719,,9264.0,8404.0,8600.0,9380.0,0.0,0.0,"(0.0, 0.0)",False,False
1642435551.7547677,10957,1642435551,626169188,,9264.0,8400.0,8612.0,9356.0,0.0,0.0,"(0.0, 0.0)",False,False
1642435551.7547755,10958,1642435551,636225698,,9244.0,8416.0,8604.0,9396.0,0.0,0.0,"(0.0, 0.0)",False,False
1642435551.754788,10959,1642435551,646203823,,9228.0,8412.0,8612.0,9380.0,0.0,0.0,"(0.0, 0.0)",False,False
1642435551.7565258,10960,1642435551,656198563,,9216.0,8368.0,8608.0,9364.0,0.0,0.0,"(0.0, 0.0)",False,False
1642435551.7565424,10961,1642435551,666226375,,9196.0,8340.0,8636.0,9336.0,0.0,0.0,"(0.0, 0.0)",False,False
1642435551.7565618,10962,1642435551,676213407,,9168.0,8384.0,8632.0,9320.0,0.0,0.0,"(0.0, 0.0)",False,False
1642435551.7565877,10963,1642435551,686246375,,9192.0,8404.0,8648.0,9340.0,0.0,0.0,"(0.0, 0.0)",False,False
1642435551.756695,10964,1642435551,696211011,,9160.0,8400.0,8648.0,9312.0,0.0,0.0,"(0.0, 0.0)",False,False
1642435551.7569077,10965,1642435551,706255646,,9212.0,8424.0,8588.0,9268.0,0.0,0.0,"(0.0, 0.0)",False,False
1642435551.7581844,10966,1642435551,716201896,,9200.0,8368.0,8592.0,9232.0,0.0,0.0,"(0.0, 0.0)",False,False
1642435551.758728,10967,1642435551,726541793,,9252.0,8404.0,8584.0,9256.0,0.0,0.0,"(0.0, 0.0)",False,False
1642435551.759425,10968,1642435551,736170646,,9264.0,8400.0,8568.0,9292.0,0.0,0.0,"(0.0, 0.0)",False,False
1642435551.7594416,10969,1642435551,746277000,,9212.0,8424.0,8588.0,9276.0,0.0,0.0,"(0.0, 0.0)",False,False
1642435551.7603729,10970,1642435551,756200698,,9208.0,8348.0,8596.0,9264.0,0.0,0.0,"(0.0, 0.0)",False,False
1642435551.7890282,10971,1642435551,766295698,,9148.0,8372.0,8612.0,9304.0,0.0,0.0,"(0.0, 0.0)",False,False
1642435551.7948236,10972,1642435551,776197520,,9232.0,8396.0,8576.0,9280.0,0.0,0.0,"(0.0, 0.0)",False,False
1642435551.7948508,10973,1642435551,786219291,,9296.0,8408.0,8552.0,9240.0,0.0,0.0,"(0.0, 0.0)",False,False
1642435551.8005438,10974,1642435551,796209031,,9316.0,8492.0,8480.0,9244.0,0.0,0.0,"(0.0, 0.0)",False,False
1642435551.8085496,10975,1642435551,806206270,,9320.0,8460.0,8532.0,9260.0,0.0,0.0,"(0.0, 0.0)",False,False
1642435551.8185594,10976,1642435551,816233144,,9284.0,8460.0,8560.0,9240.0,0.0,0.0,"(0.0, 0.0)",False,False
1642435551.82744,10977,1642435551,826254498,,9240.0,8444.0,8600.0,9252.0,0.0,0.0,"(0.0, 0.0)",False,False
1642435551.8378794,10978,1642435551,836338353,,9176.0,8404.0,8588.0,9292.0,0.0,0.0,"(0.0, 0.0)",False,False
1642435551.8477085,10979,1642435551,846225177,,9164.0,8392.0,8664.0,9304.0,0.0,0.0,"(0.0, 0.0)",False,False
1642435551.8578527,10980,1642435551,856189813,,9156.0,8380.0,8652.0,9300.0,0.0,0.0,"(0.0, 0.0)",False,False
1642435551.8699553,10981,1642435551,866682782,,9200.0,8412.0,8632.0,9252.0,0.0,0.0,"(0.0, 0.0)",False,False
1642435551.877564,10982,1642435551,876209083,,9208.0,8372.0,8620.0,9276.0,0.0,0.0,"(0.0, 0.0)",False,False
1642435551.888352,10983,1642435551,886264031,,9248.0,8376.0,8548.0,9236.0,0.0,0.0,"(0.0, 0.0)",False,False
1642435551.89791,10984,1642435551,896178354,,9224.0,8396.0,8540.0,9240.0,0.0,0.0,"(0.0, 0.0)",False,False
1642435551.9082167,10985,1642435551,906282208,,9272.0,8484.0,8572.0,9280.0,0.0,0.0,"(0.0, 0.0)",False,False
1642435551.9186342,10986,1642435551,916180541,,9236.0,8400.0,8572.0,9248.0,0.0,0.0,"(0.0, 0.0)",False,False
1642435551.9290261,10987,1642435551,926232781,,9272.0,8392.0,8560.0,9236.0,0.0,0.0,"(0.0, 0.0)",False,False
1642435551.9374876,10988,1642435551,936213458,,9252.0,8368.0,8524.0,9260.0,0.0,0.0,"(0.0, 0.0)",False,False
1642435551.9479878,10989,1642435551,946223979,,9208.0,8348.0,8552.0,9244.0,0.0,0.0,"(0.0, 0.0)",False,False
1642435551.9582956,10990,1642435551,956369968,,9240.0,8372.0,8536.0,9200.0,0.0,0.0,"(0.0, 0.0)",False,False
1642435551.969037,10991,1642435551,966410021,,9268.0,8356.0,8544.0,9252.0,0.0,0.0,"(0.0, 0.0)",False,False
1642435551.978452,10992,1642435551,976610021,,9256.0,8424.0,8568.0,9232.0,0.0,0.0,"(0.0, 0.0)",False,False
1642435551.9880085,10993,1642435551,986301479,,9292.0,8436.0,8532.0,9228.0,0.0,0.0,"(0.0, 0.0)",False,False
1642435551.997972,10994,1642435551,996195802,,9240.0,8404.0,8528.0,9288.0,0.0,0.0,"(0.0, 0.0)",False,False
1642435552.0075817,10995,1642435552,6232573,,9192.0,8380.0,8524.0,9264.0,0.0,0.0,"(0.0, 0.0)",False,False
1642435552.018061,10996,1642435552,16249760,,9256.0,8384.0,8540.0,9260.0,0.0,0.0,"(0.0, 0.0)",False,False
1642435552.0280104,10997,1642435552,26191896,,9252.0,8372.0,8524.0,9208.0,0.0,0.0,"(0.0, 0.0)",False,False
1642435552.0381486,10998,1642435552,36223302,,9320.0,8444.0,8524.0,9248.0,0.0,0.0,"(0.0, 0.0)",False,False
1642435552.0478444,10999,1642435552,46214083,,9288.0,8412.0,8556.0,9216.0,0.0,0.0,"(0.0, 0.0)",False,False
1642435552.0574899,11000,1642435552,56213666,,9276.0,8444.0,8552.0,9244.0,0.0,0.0,"(0.0, 0.0)",False,False
1642435552.0686967,11001,1642435552,66227885,,9296.0,8392.0,8532.0,9236.0,0.0,0.0,"(0.0, 0.0)",False,False
1642435552.0775452,11002,1642435552,76173354,,9248.0,8404.0,8556.0,9216.0,0.0,0.0,"(0.0, 0.0)",False,False
1642435552.0880404,11003,1642435552,86200229,,9264.0,8348.0,8568.0,9232.0,0.0,0.0,"(0.0, 0.0)",False,False
1642435552.0976489,11004,1642435552,96196479,,9272.0,8372.0,8552.0,9192.0,0.0,0.0,"(0.0, 0.0)",False,False
1642435552.1080487,11005,1642435552,106233354,,9292.0,8424.0,8532.0,9264.0,0.0,0.0,"(0.0, 0.0)",False,False
1642435552.118639,11006,1642435552,116181218,,9320.0,8404.0,8524.0,9208.0,0.0,0.0,"(0.0, 0.0)",False,False
1642435552.12855,11007,1642435552,126226635,,9280.0,8388.0,8536.0,9168.0,0.0,0.0,"(0.0, 0.0)",False,False
1642435552.1380358,11008,1642435552,136232156,,9304.0,8428.0,8524.0,9204.0,0.0,0.0,"(0.0, 0.0)",False,False
1642435552.147549,11009,1642435552,146201896,,9316.0,8432.0,8484.0,9172.0,0.0,0.0,"(0.0, 0.0)",False,False
1642435552.158099,11010,1642435552,156230125,,9276.0,8388.0,8568.0,9180.0,0.0,0.0,"(0.0, 0.0)",False,False
1642435552.168437,11011,1642435552,166197468,,9240.0,8340.0,8592.0,9160.0,0.0,0.0,"(0.0, 0.0)",False,False
1642435552.1780279,11012,1642435552,176206323,,9292.0,8384.0,8556.0,9204.0,0.0,0.0,"(0.0, 0.0)",False,False
1642435552.1876247,11013,1642435552,186185750,,9332.0,8340.0,8512.0,9136.0,0.0,0.0,"(0.0, 0.0)",False,False
1642435552.1975312,11014,1642435552,196195333,,9320.0,8372.0,8520.0,9172.0,0.0,0.0,"(0.0, 0.0)",False,False
1642435552.207751,11015,1642435552,206270646,,9360.0,8460.0,8496.0,9180.0,0.0,0.0,"(0.0, 0.0)",False,False
1642435552.2193754,11016,1642435552,216300646,,9364.0,8424.0,8516.0,9184.0,0.0,0.0,"(0.0, 0.0)",False,False
1642435552.2274811,11017,1642435552,226198510,,9296.0,8392.0,8508.0,9180.0,0.0,0.0,"(0.0, 0.0)",False,False
1642435552.23827,11018,1642435552,236193146,,9292.0,8376.0,8552.0,9184.0,0.0,0.0,"(0.0, 0.0)",False,False
1642435552.2478316,11019,1642435552,246390229,,9292.0,8352.0,8556.0,9188.0,0.0,0.0,"(0.0, 0.0)",False,False
1642435552.257851,11020,1642435552,256541375,,9240.0,8316.0,8596.0,9248.0,0.0,0.0,"(0.0, 0.0)",False,False
1642435552.2696497,11021,1642435552,266276062,,9244.0,8324.0,8596.0,9220.0,0.0,0.0,"(0.0, 0.0)",False,False
1642435552.278489,11022,1642435552,276339500,,9272.0,8324.0,8600.0,9244.0,0.0,0.0,"(0.0, 0.0)",False,False
1642435552.2883441,11023,1642435552,286537573,,9328.0,8356.0,8520.0,9184.0,0.0,0.0,"(0.0, 0.0)",False,False
1642435552.2976081,11024,1642435552,296254552,,9380.0,8356.0,8484.0,9140.0,0.0,0.0,"(0.0, 0.0)",False,False
1642435552.3072746,11025,1642435552,306196531,,9316.0,8372.0,8508.0,9200.0,0.0,0.0,"(0.0, 0.0)",False,False
1642435552.3173535,11026,1642435552,316202677,,9320.0,8372.0,8528.0,9148.0,0.0,0.0,"(0.0, 0.0)",False,False
1642435552.3273098,11027,1642435552,326195541,,9280.0,8352.0,8512.0,9196.0,0.0,0.0,"(0.0, 0.0)",False,False
1642435552.3380215,11028,1642435552,336288302,,9320.0,8396.0,8484.0,9172.0,0.0,0.0,"(0.0, 0.0)",False,False
1642435552.3478122,11029,1642435552,346212000,,9356.0,8380.0,8496.0,9188.0,0.0,0.0,"(0.0, 0.0)",False,False
1642435552.3577034,11030,1642435552,356185489,,9348.0,8336.0,8496.0,9164.0,0.0,0.0,"(0.0, 0.0)",False,False
1642435552.3690953,11031,1642435552,367426792,,9300.0,8368.0,8584.0,9200.0,0.0,0.0,"(0.0, 0.0)",False,False
1642435552.3773694,11032,1642435552,376170125,,9304.0,8316.0,8576.0,9232.0,0.0,0.0,"(0.0, 0.0)",False,False
1642435552.3892868,11033,1642435552,386246635,,9272.0,8244.0,8572.0,9260.0,0.0,0.0,"(0.0, 0.0)",False,False
1642435552.398065,11034,1642435552,396189968,,9272.0,8264.0,8576.0,9224.0,0.0,0.0,"(0.0, 0.0)",False,False
1642435552.4080102,11035,1642435552,406206166,,9272.0,8320.0,8524.0,9192.0,0.0,0.0,"(0.0, 0.0)",False,False
1642435552.417721,11036,1642435552,416188718,,9292.0,8336.0,8548.0,9168.0,0.0,0.0,"(0.0, 0.0)",False,False
1642435552.4276237,11037,1642435552,426185281,,9292.0,8340.0,8564.0,9140.0,0.0,0.0,"(0.0, 0.0)",False,False
1642435552.4375634,11038,1642435552,436225489,,9280.0,8360.0,8532.0,9116.0,0.0,0.0,"(0.0, 0.0)",False,False
1642435552.4481335,11039,1642435552,446769813,,9280.0,8360.0,8588.0,9168.0,0.0,0.0,"(0.0, 0.0)",False,False
1642435552.4582348,11040,1642435552,456221583,,9300.0,8296.0,8588.0,9148.0,0.0,0.0,"(0.0, 0.0)",False,False
1642435552.4685037,11041,1642435552,466306635,,9292.0,8312.0,8560.0,9156.0,0.0,0.0,"(0.0, 0.0)",False,False
1642435552.4781957,11042,1642435552,476200437,,9284.0,8324.0,8572.0,9160.0,0.0,0.0,"(0.0, 0.0)",False,False
1642435552.4873881,11043,1642435552,486191791,,9320.0,8256.0,8596.0,9136.0,0.0,0.0,"(0.0, 0.0)",False,False
1642435552.4982755,11044,1642435552,496205333,,9280.0,8308.0,8596.0,9172.0,0.0,0.0,"(0.0, 0.0)",False,False
1642435552.5081313,11045,1642435552,506247573,,9280.0,8320.0,8608.0,9188.0,0.0,0.0,"(0.0, 0.0)",False,False
1642435552.518506,11046,1642435552,516166739,,9308.0,8304.0,8632.0,9168.0,0.0,0.0,"(0.0, 0.0)",False,False
1642435552.5275826,11047,1642435552,526175385,,9288.0,8308.0,8596.0,9240.0,0.0,0.0,"(0.0, 0.0)",False,False
1642435552.5379372,11048,1642435552,536197312,,9300.0,8340.0,8560.0,9204.0,0.0,0.0,"(0.0, 0.0)",False,False
1642435552.5481927,11049,1642435552,546213614,,9320.0,8340.0,8584.0,9196.0,0.0,0.0,"(0.0, 0.0)",False,False
1642435552.55788,11050,1642435552,556247312,,9308.0,8340.0,8580.0,9248.0,0.0,0.0,"(0.0, 0.0)",False,False
1642435552.5687482,11051,1642435552,566424083,,9304.0,8316.0,8628.0,9212.0,0.0,0.0,"(0.0, 0.0)",False,False
1642435552.577501,11052,1642435552,576220437,,9300.0,8360.0,8576.0,9236.0,0.0,0.0,"(0.0, 0.0)",False,False
1642435552.587766,11053,1642435552,586249968,,9256.0,8336.0,8636.0,9216.0,0.0,0.0,"(0.0, 0.0)",False,False
1642435552.5986378,11054,1642435552,596547886,,9304.0,8300.0,8652.0,9168.0,0.0,0.0,"(0.0, 0.0)",False,False
1642435552.6084676,11055,1642435552,606553719,,9280.0,8328.0,8656.0,9196.0,0.0,0.0,"(0.0, 0.0)",False,False
1642435552.6176286,11056,1642435552,616244083,,9280.0,8324.0,8644.0,9188.0,0.0,0.0,"(0.0, 0.0)",False,False
1642435552.628126,11057,1642435552,626280125,,9320.0,8388.0,8660.0,9148.0,0.0,0.0,"(0.0, 0.0)",False,False
1642435552.637942,11058,1642435552,636213354,,9292.0,8348.0,8632.0,9200.0,0.0,0.0,"(0.0, 0.0)",False,False
1642435552.6475403,11059,1642435552,646236062,,9272.0,8372.0,8640.0,9216.0,0.0,0.0,"(0.0, 0.0)",False,False
1642435552.6578221,11060,1642435552,656209031,,9272.0,8368.0,8652.0,9160.0,0.0,0.0,"(0.0, 0.0)",False,False
1642435552.6682303,11061,1642435552,666295125,,9280.0,8312.0,8644.0,9220.0,0.0,0.0,"(0.0, 0.0)",False,False
1642435552.6785767,11062,1642435552,676195906,,9300.0,8320.0,8640.0,9180.0,0.0,0.0,"(0.0, 0.0)",False,False
1642435552.6893876,11063,1642435552,686423198,,9296.0,8352.0,8664.0,9168.0,0.0,0.0,"(0.0, 0.0)",False,False
1642435552.6998084,11064,1642435552,696275645,,9304.0,8340.0,8636.0,9212.0,0.0,0.0,"(0.0, 0.0)",False,False
1642435552.70787,11065,1642435552,706176270,,9308.0,8352.0,8636.0,9228.0,0.0,0.0,"(0.0, 0.0)",False,False
1642435552.7176418,11066,1642435552,716184708,,9324.0,8348.0,8644.0,9196.0,0.0,0.0,"(0.0, 0.0)",False,False
1642435552.72755,11067,1642435552,726227677,,9284.0,8332.0,8700.0,9216.0,0.0,0.0,"(0.0, 0.0)",False,False
1642435552.7375832,11068,1642435552,736233979,,9276.0,8380.0,8672.0,9196.0,0.0,0.0,"(0.0, 0.0)",False,False
1642435552.747879,11069,1642435552,746215437,,9300.0,8340.0,8660.0,9168.0,0.0,0.0,"(0.0, 0.0)",False,False
1642435552.7586787,11070,1642435552,756403979,,9308.0,8344.0,8676.0,9232.0,0.0,0.0,"(0.0, 0.0)",False,False
1642435552.768076,11071,1642435552,766233250,,9292.0,8328.0,8624.0,9220.0,0.0,0.0,"(0.0, 0.0)",False,False
1642435552.7810373,11072,1642435552,776190854,,9300.0,8348.0,8680.0,9204.0,0.0,0.0,"(0.0, 0.0)",False,False
1642435552.7873497,11073,1642435552,786183041,,9292.0,8320.0,8648.0,9232.0,0.0,0.0,"(0.0, 0.0)",False,False
1642435552.7978191,11074,1642435552,796230125,,9292.0,8376.0,8672.0,9224.0,0.0,0.0,"(0.0, 0.0)",False,False
1642435552.807322,11075,1642435552,806212937,,9232.0,8336.0,8704.0,9228.0,0.0,0.0,"(0.0, 0.0)",False,False
1642435552.817991,11076,1642435552,816618980,,9244.0,8360.0,8692.0,9200.0,0.0,0.0,"(0.0, 0.0)",False,False
1642435552.8276486,11077,1642435552,826289500,,9256.0,8344.0,8736.0,9168.0,0.0,0.0,"(0.0, 0.0)",False,False
1642435552.8376112,11078,1642435552,836256635,,9292.0,8344.0,8696.0,9152.0,0.0,0.0,"(0.0, 0.0)",False,False
1642435552.8484638,11079,1642435552,846210073,,9384.0,8320.0,8684.0,9184.0,0.0,0.0,"(0.0, 0.0)",False,False
1642435552.8577108,11080,1642435552,856206895,,9356.0,8332.0,8676.0,9144.0,0.0,0.0,"(0.0, 0.0)",False,False
1642435552.8685215,11081,1642435552,866903302,,9296.0,8344.0,8680.0,9192.0,0.0,0.0,"(0.0, 0.0)",False,False
1642435552.8773801,11082,1642435552,876206635,,9296.0,8328.0,8700.0,9220.0,0.0,0.0,"(0.0, 0.0)",False,False
1642435552.8880641,11083,1642435552,886194864,,9272.0,8304.0,8752.0,9200.0,0.0,0.0,"(0.0, 0.0)",False,False
1642435552.8974843,11084,1642435552,896259083,,9260.0,8340.0,8736.0,9176.0,0.0,0.0,"(0.0, 0.0)",False,False
1642435552.9081254,11085,1642435552,906198718,,9280.0,8328.0,8712.0,9192.0,0.0,0.0,"(0.0, 0.0)",False,False
1642435552.917246,11086,1642435552,916195750,,9320.0,8356.0,8720.0,9160.0,0.0,0.0,"(0.0, 0.0)",False,False
1642435552.9277518,11087,1642435552,926230698,,9320.0,8328.0,8720.0,9136.0,0.0,0.0,"(0.0, 0.0)",False,False
1642435552.9375904,11088,1642435552,936191895,,9284.0,8344.0,8700.0,9164.0,0.0,0.0,"(0.0, 0.0)",False,False
1642435552.9483128,11089,1642435552,946280854,,9292.0,8348.0,8736.0,9172.0,0.0,0.0,"(0.0, 0.0)",False,False
1642435552.9579782,11090,1642435552,956200854,,9264.0,8332.0,8712.0,9208.0,0.0,0.0,"(0.0, 0.0)",False,False
1642435552.9682152,11091,1642435552,966334031,,9276.0,8300.0,8752.0,9196.0,0.0,0.0,"(0.0, 0.0)",False,False
1642435552.9777977,11092,1642435552,976220125,,9248.0,8316.0,8732.0,9176.0,0.0,0.0,"(0.0, 0.0)",False,False
1642435552.98835,11093,1642435552,986221531,,9264.0,8272.0,8764.0,9236.0,0.0,0.0,"(0.0, 0.0)",False,False
1642435552.9988794,11094,1642435552,996309552,,9308.0,8268.0,8752.0,9184.0,0.0,0.0,"(0.0, 0.0)",False,False
1642435553.0081031,11095,1642435553,6189343,,9320.0,8304.0,8760.0,9204.0,0.0,0.0,"(0.0, 0.0)",False,False
1642435553.018396,11096,1642435553,16250385,,9352.0,8272.0,8732.0,9172.0,0.0,0.0,"(0.0, 0.0)",False,False
1642435553.027768,11097,1642435553,26208145,,9372.0,8268.0,8740.0,9164.0,0.0,0.0,"(0.0, 0.0)",False,False
1642435553.0379262,11098,1642435553,36251114,,9336.0,8312.0,8728.0,9196.0,0.0,0.0,"(0.0, 0.0)",False,False
1642435553.0483224,11099,1642435553,46715438,,9372.0,8300.0,8748.0,9204.0,0.0,0.0,"(0.0, 0.0)",False,False
1642435553.0586736,11100,1642435553,56228510,,9344.0,8288.0,8728.0,9216.0,0.0,0.0,"(0.0, 0.0)",False,False
1642435553.0679119,11101,1642435553,66196583,,9296.0,8244.0,8748.0,9244.0,0.0,0.0,"(0.0, 0.0)",False,False
1642435553.0791206,11102,1642435553,76218927,,9320.0,8256.0,8792.0,9168.0,0.0,0.0,"(0.0, 0.0)",False,False
1642435553.087571,11103,1642435553,86172000,,9292.0,8248.0,8748.0,9216.0,0.0,0.0,"(0.0, 0.0)",False,False
1642435553.1002154,11104,1642435553,96742677,,9308.0,8232.0,8756.0,9192.0,0.0,0.0,"(0.0, 0.0)",False,False
1642435553.1077638,11105,1642435553,106192572,,9304.0,8244.0,8780.0,9208.0,0.0,0.0,"(0.0, 0.0)",False,False
1642435553.1176682,11106,1642435553,116182364,,9420.0,8252.0,8772.0,9204.0,0.0,0.0,"(0.0, 0.0)",False,False
1642435553.1282601,11107,1642435553,126186166,,9312.0,8244.0,8788.0,9216.0,0.0,0.0,"(0.0, 0.0)",False,False
1642435553.1381483,11108,1642435553,136551375,,9360.0,8232.0,8764.0,9264.0,0.0,0.0,"(0.0, 0.0)",False,False
1642435553.1480095,11109,1642435553,146199083,,9348.0,8212.0,8784.0,9192.0,0.0,0.0,"(0.0, 0.0)",False,False
1642435553.158064,11110,1642435553,156193354,,9288.0,8228.0,8768.0,9256.0,0.0,0.0,"(0.0, 0.0)",False,False
1642435553.1685221,11111,1642435553,166196114,,9328.0,8272.0,8764.0,9196.0,0.0,0.0,"(0.0, 0.0)",False,False
1642435553.1771739,11112,1642435553,176192625,,9260.0,8392.0,8784.0,9176.0,0.0,0.0,"(0.0, 0.0)",False,False
1642435553.188499,11113,1642435553,186549657,,9132.0,8496.0,8872.0,9212.0,0.0,0.0,"(0.0, 0.0)",False,False
1642435553.1989849,11114,1642435553,196294864,,9120.0,8516.0,8888.0,9156.0,0.0,0.0,"(0.0, 0.0)",False,False
1642435553.2086926,11115,1642435553,206258510,,9168.0,8500.0,8852.0,9224.0,0.0,0.0,"(0.0, 0.0)",False,False
1642435553.2178311,11116,1642435553,216221531,,9224.0,8452.0,8800.0,9288.0,0.0,0.0,"(0.0, 0.0)",False,False
1642435553.2275953,11117,1642435553,226216895,,9340.0,8396.0,8768.0,9304.0,0.0,0.0,"(0.0, 0.0)",False,False
1642435553.2374833,11118,1642435553,236247260,,9424.0,8328.0,8716.0,9324.0,0.0,0.0,"(0.0, 0.0)",False,False
1642435553.247522,11119,1642435553,246218041,,9396.0,8316.0,8688.0,9376.0,0.0,0.0,"(0.0, 0.0)",False,False
1642435553.2585142,11120,1642435553,256225906,,9392.0,8256.0,8676.0,9356.0,0.0,0.0,"(0.0, 0.0)",False,False
1642435553.2681077,11121,1642435553,266213354,,9404.0,8216.0,8704.0,9324.0,0.0,0.0,"(0.0, 0.0)",False,False
1642435553.278784,11122,1642435553,276226479,,9396.0,8292.0,8680.0,9296.0,0.0,0.0,"(0.0, 0.0)",False,False
1642435553.3090158,11123,1642435553,286198302,,9408.0,8324.0,8628.0,9276.0,0.0,0.0,"(0.0, 0.0)",False,False
1642435553.3130937,11124,1642435553,296199343,,9464.0,8288.0,8620.0,9240.0,0.0,0.0,"(0.0, 0.0)",False,False
1642435553.3131247,11125,1642435553,306205437,,9444.0,8336.0,8640.0,9176.0,0.0,0.0,"(0.0, 0.0)",False,False
1642435553.3176198,11126,1642435553,316237677,,9432.0,8336.0,8660.0,9176.0,0.0,0.0,"(0.0, 0.0)",False,False
1642435553.3278596,11127,1642435553,326387677,,9412.0,8372.0,8700.0,9228.0,0.0,0.0,"(0.0, 0.0)",False,False
1642435553.3383877,11128,1642435553,336332364,,9408.0,8344.0,8728.0,9192.0,0.0,0.0,"(0.0, 0.0)",False,False
1642435553.347302,11129,1642435553,346227104,,9296.0,8296.0,8752.0,9224.0,0.0,0.0,"(0.0, 0.0)",False,False
1642435553.361426,11130,1642435553,356188562,,9248.0,8228.0,8784.0,9208.0,0.0,0.0,"(0.0, 0.0)",False,False
1642435553.3676405,11131,1642435553,366198197,,9256.0,8220.0,8808.0,9192.0,0.0,0.0,"(0.0, 0.0)",False,False
1642435553.3779492,11132,1642435553,376227052,,9288.0,8220.0,8776.0,9240.0,0.0,0.0,"(0.0, 0.0)",False,False
1642435553.3882017,11133,1642435553,386187104,,9392.0,8216.0,8748.0,9224.0,0.0,0.0,"(0.0, 0.0)",False,False
1642435553.397572,11134,1642435553,396211322,,9420.0,8224.0,8704.0,9216.0,0.0,0.0,"(0.0, 0.0)",False,False
1642435553.4086747,11135,1642435553,406221010,,9400.0,8244.0,8660.0,9196.0,0.0,0.0,"(0.0, 0.0)",False,False
1642435553.418209,11136,1642435553,416213875,,9384.0,8248.0,8716.0,9188.0,0.0,0.0,"(0.0, 0.0)",False,False
1642435553.427976,11137,1642435553,426209135,,9360.0,8268.0,8700.0,9104.0,0.0,0.0,"(0.0, 0.0)",False,False
1642435553.4379058,11138,1642435553,436207104,,9360.0,8272.0,8732.0,9128.0,0.0,0.0,"(0.0, 0.0)",False,False
1642435553.447917,11139,1642435553,446177468,,9352.0,8268.0,8736.0,9116.0,0.0,0.0,"(0.0, 0.0)",False,False
1642435553.457696,11140,1642435553,456195333,,9328.0,8248.0,8812.0,9128.0,0.0,0.0,"(0.0, 0.0)",False,False
1642435553.4672759,11141,1642435553,466268927,,9228.0,8256.0,8828.0,9144.0,0.0,0.0,"(0.0, 0.0)",False,False
1642435553.4788947,11142,1642435553,476195437,,9268.0,8220.0,8812.0,9112.0,0.0,0.0,"(0.0, 0.0)",False,False
1642435553.4884932,11143,1642435553,486183145,,9312.0,8252.0,8804.0,9180.0,0.0,0.0,"(0.0, 0.0)",False,False
1642435553.4986272,11144,1642435553,496916844,,9368.0,8264.0,8800.0,9132.0,0.0,0.0,"(0.0, 0.0)",False,False
1642435553.5088706,11145,1642435553,506937104,,9356.0,8252.0,8756.0,9076.0,0.0,0.0,"(0.0, 0.0)",False,False
1642435553.5186849,11146,1642435553,516565073,,9304.0,8276.0,8772.0,9124.0,0.0,0.0,"(0.0, 0.0)",False,False
1642435553.5287607,11147,1642435553,526989657,,9264.0,8272.0,8868.0,9136.0,0.0,0.0,"(0.0, 0.0)",False,False
1642435553.5380793,11148,1642435553,536375177,,9264.0,8260.0,8816.0,9124.0,0.0,0.0,"(0.0, 0.0)",False,False
1642435553.5479498,11149,1642435553,546326270,,9320.0,8280.0,8820.0,9116.0,0.0,0.0,"(0.0, 0.0)",False,False
1642435553.5580306,11150,1642435553,556308822,,9304.0,8288.0,8804.0,9108.0,0.0,0.0,"(0.0, 0.0)",False,False
1642435553.5674913,11151,1642435553,566185749,,9288.0,8300.0,8808.0,9132.0,0.0,0.0,"(0.0, 0.0)",False,False
1642435553.5778406,11152,1642435553,576249291,,9348.0,8308.0,8816.0,9116.0,0.0,0.0,"(0.0, 0.0)",False,False
1642435553.5876637,11153,1642435553,586182937,,9312.0,8316.0,8884.0,9180.0,0.0,0.0,"(0.0, 0.0)",False,False
1642435553.597986,11154,1642435553,596245124,,9288.0,8268.0,8900.0,9160.0,0.0,0.0,"(0.0, 0.0)",False,False
1642435553.6083899,11155,1642435553,606184499,,9320.0,8288.0,8812.0,9180.0,0.0,0.0,"(0.0, 0.0)",False,False
1642435553.6185958,11156,1642435553,616245124,,9356.0,8288.0,8804.0,9184.0,0.0,0.0,"(0.0, 0.0)",False,False
1642435553.6292448,11157,1642435553,627201792,,9360.0,8304.0,8832.0,9172.0,0.0,0.0,"(0.0, 0.0)",False,False
1642435553.6392715,11158,1642435553,636621532,,9332.0,8308.0,8828.0,9236.0,0.0,0.0,"(0.0, 0.0)",False,False
1642435553.6493907,11159,1642435553,647580386,,9396.0,8308.0,8860.0,9248.0,0.0,0.0,"(0.0, 0.0)",False,False
1642435553.6585534,11160,1642435553,657128927,,9420.0,8388.0,8832.0,9156.0,0.0,0.0,"(0.0, 0.0)",False,False
1642435553.667998,11161,1642435553,666332781,,9372.0,8340.0,8788.0,9200.0,0.0,0.0,"(0.0, 0.0)",False,False
1642435553.6789267,11162,1642435553,676997157,,9372.0,8312.0,8860.0,9172.0,0.0,0.0,"(0.0, 0.0)",False,False
1642435553.6885197,11163,1642435553,686507000,,9300.0,8304.0,8844.0,9180.0,0.0,0.0,"(0.0, 0.0)",False,False
1642435553.697915,11164,1642435553,696338822,,9308.0,8352.0,8892.0,9256.0,0.0,0.0,"(0.0, 0.0)",False,False
1642435553.707804,11165,1642435553,706328822,,9284.0,8312.0,8916.0,9260.0,0.0,0.0,"(0.0, 0.0)",False,False
1642435553.7193444,11166,1642435553,716515177,,9320.0,8296.0,8916.0,9304.0,0.0,0.0,"(0.0, 0.0)",False,False
1642435553.72896,11167,1642435553,727102677,,9332.0,8284.0,8912.0,9192.0,0.0,0.0,"(0.0, 0.0)",False,False
1642435553.7376487,11168,1642435553,736256895,,9352.0,8324.0,8872.0,9228.0,0.0,0.0,"(0.0, 0.0)",False,False
1642435553.747858,11169,1642435553,746253927,,9476.0,8364.0,8836.0,9188.0,0.0,0.0,"(0.0, 0.0)",False,False
1642435553.7583838,11170,1642435553,756224135,,9472.0,8372.0,8844.0,9160.0,0.0,0.0,"(0.0, 0.0)",False,False
1642435553.7676575,11171,1642435553,766228093,,9468.0,8448.0,8772.0,9228.0,0.0,0.0,"(0.0, 0.0)",False,False
1642435553.779085,11172,1642435553,776198145,,9460.0,8432.0,8788.0,9216.0,0.0,0.0,"(0.0, 0.0)",False,False
1642435553.7890794,11173,1642435553,786255958,,9404.0,8416.0,8908.0,9256.0,0.0,0.0,"(0.0, 0.0)",False,False
1642435553.7982469,11174,1642435553,796257468,,9332.0,8328.0,8964.0,9236.0,0.0,0.0,"(0.0, 0.0)",False,False
1642435553.8091476,11175,1642435553,806243979,,9272.0,8332.0,9012.0,9248.0,0.0,0.0,"(0.0, 0.0)",False,False
1642435553.817339,11176,1642435553,816249656,,9328.0,8372.0,9020.0,9320.0,0.0,0.0,"(0.0, 0.0)",False,False
1642435553.8281608,11177,1642435553,826441010,,9432.0,8400.0,8956.0,9304.0,0.0,0.0,"(0.0, 0.0)",False,False
1642435553.8375072,11178,1642435553,836212677,,9436.0,8464.0,8908.0,9284.0,0.0,0.0,"(0.0, 0.0)",False,False
1642435553.8477366,11179,1642435553,846187937,,9424.0,8408.0,8924.0,9324.0,0.0,0.0,"(0.0, 0.0)",False,False
1642435553.8574846,11180,1642435553,856192572,,9400.0,8480.0,8872.0,9216.0,0.0,0.0,"(0.0, 0.0)",False,False
1642435553.867508,11181,1642435553,866222937,,9392.0,8464.0,8912.0,9216.0,0.0,0.0,"(0.0, 0.0)",False,False
1642435553.8786924,11182,1642435553,876378041,,9388.0,8436.0,8936.0,9216.0,0.0,0.0,"(0.0, 0.0)",False,False
1642435553.8880887,11183,1642435553,886296114,,9356.0,8464.0,8932.0,9300.0,0.0,0.0,"(0.0, 0.0)",False,False
1642435553.8971183,11184,1642435553,896209187,,9392.0,8432.0,8892.0,9304.0,0.0,0.0,"(0.0, 0.0)",False,False
1642435553.9079971,11185,1642435553,906249656,,9456.0,8416.0,8888.0,9308.0,0.0,0.0,"(0.0, 0.0)",False,False
1642435553.9186208,11186,1642435553,916183406,,9480.0,8400.0,8912.0,9272.0,0.0,0.0,"(0.0, 0.0)",False,False
1642435553.9276807,11187,1642435553,926197572,,9440.0,8436.0,8916.0,9260.0,0.0,0.0,"(0.0, 0.0)",False,False
1642435553.937973,11188,1642435553,936217989,,9424.0,8400.0,8904.0,9260.0,0.0,0.0,"(0.0, 0.0)",False,False
1642435553.9476736,11189,1642435553,946197468,,9412.0,8484.0,8916.0,9328.0,0.0,0.0,"(0.0, 0.0)",False,False
1642435553.9592898,11190,1642435553,956686740,,9424.0,8420.0,8952.0,9308.0,0.0,0.0,"(0.0, 0.0)",False,False
1642435553.9682496,11191,1642435553,966216583,,9428.0,8492.0,8916.0,9340.0,0.0,0.0,"(0.0, 0.0)",False,False
1642435553.9788187,11192,1642435553,976197156,,9452.0,8436.0,8904.0,9260.0,0.0,0.0,"(0.0, 0.0)",False,False
1642435553.9877548,11193,1642435553,986209239,,9480.0,8452.0,8840.0,9240.0,0.0,0.0,"(0.0, 0.0)",False,False
1642435553.9977582,11194,1642435553,996203718,,9524.0,8428.0,8896.0,9284.0,0.0,0.0,"(0.0, 0.0)",False,False
1642435554.0077312,11195,1642435554,6173718,,9524.0,8440.0,8884.0,9332.0,0.0,0.0,"(0.0, 0.0)",False,False
1642435554.0176275,11196,1642435554,16165645,,9536.0,8400.0,8884.0,9308.0,0.0,0.0,"(0.0, 0.0)",False,False
1642435554.0276291,11197,1642435554,26213041,,9476.0,8464.0,8876.0,9320.0,0.0,0.0,"(0.0, 0.0)",False,False
1642435554.0387578,11198,1642435554,36201843,,9452.0,8424.0,8916.0,9324.0,0.0,0.0,"(0.0, 0.0)",False,False
1642435554.0482287,11199,1642435554,46203197,,9420.0,8376.0,8992.0,9336.0,0.0,0.0,"(0.0, 0.0)",False,False
1642435554.0614173,11200,1642435554,56181531,,9456.0,8432.0,8992.0,9328.0,0.0,0.0,"(0.0, 0.0)",False,False
1642435554.068465,11201,1642435554,66217208,,9452.0,8400.0,8948.0,9348.0,0.0,0.0,"(0.0, 0.0)",False,False
1642435554.077726,11202,1642435554,76180958,,9568.0,8468.0,8936.0,9316.0,0.0,0.0,"(0.0, 0.0)",False,False
1642435554.0888598,11203,1642435554,86737834,,9556.0,8368.0,8908.0,9284.0,0.0,0.0,"(0.0, 0.0)",False,False
1642435554.098394,11204,1642435554,96595698,,9552.0,8404.0,8892.0,9280.0,0.0,0.0,"(0.0, 0.0)",False,False
1642435554.1079676,11205,1642435554,106423718,,9544.0,8468.0,8920.0,9288.0,0.0,0.0,"(0.0, 0.0)",False,False
1642435554.1173537,11206,1642435554,116213562,,9560.0,8460.0,8920.0,9304.0,0.0,0.0,"(0.0, 0.0)",False,False
1642435554.127767,11207,1642435554,126272156,,9556.0,8488.0,8916.0,9296.0,0.0,0.0,"(0.0, 0.0)",False,False
1642435554.138536,11208,1642435554,136395437,,9500.0,8428.0,8948.0,9304.0,0.0,0.0,"(0.0, 0.0)",False,False
1642435554.1481223,11209,1642435554,146309239,,9556.0,8428.0,8920.0,9312.0,0.0,0.0,"(0.0, 0.0)",False,False
1642435554.158198,11210,1642435554,156229708,,9504.0,8436.0,8968.0,9332.0,0.0,0.0,"(0.0, 0.0)",False,False
1642435554.1678615,11211,1642435554,166193458,,9496.0,8400.0,9056.0,9352.0,0.0,0.0,"(0.0, 0.0)",False,False
1642435554.1782596,11212,1642435554,176238979,,9488.0,8404.0,9016.0,9328.0,0.0,0.0,"(0.0, 0.0)",False,False
1642435554.1886919,11213,1642435554,187115229,,9556.0,8420.0,8980.0,9344.0,0.0,0.0,"(0.0, 0.0)",False,False
1642435554.1976967,11214,1642435554,196229708,,9584.0,8500.0,8948.0,9316.0,0.0,0.0,"(0.0, 0.0)",False,False
1642435554.2082562,11215,1642435554,206235593,,9548.0,8480.0,8932.0,9336.0,0.0,0.0,"(0.0, 0.0)",False,False
1642435554.2178137,11216,1642435554,216253145,,9560.0,8476.0,8964.0,9328.0,0.0,0.0,"(0.0, 0.0)",False,False
1642435554.2278116,11217,1642435554,226358666,,9504.0,8480.0,9032.0,9248.0,0.0,0.0,"(0.0, 0.0)",False,False
1642435554.2374597,11218,1642435554,236196791,,9476.0,8404.0,9096.0,9356.0,0.0,0.0,"(0.0, 0.0)",False,False
1642435554.249261,11219,1642435554,246206426,,9540.0,8380.0,9076.0,9300.0,0.0,0.0,"(0.0, 0.0)",False,False
1642435554.2593575,11220,1642435554,256220645,,9572.0,8436.0,9052.0,9308.0,0.0,0.0,"(0.0, 0.0)",False,False
1642435554.2674408,11221,1642435554,266258458,,9568.0,8464.0,9060.0,9300.0,0.0,0.0,"(0.0, 0.0)",False,False
1642435554.2777472,11222,1642435554,276237260,,9592.0,8416.0,9024.0,9372.0,0.0,0.0,"(0.0, 0.0)",False,False
1642435554.287767,11223,1642435554,286195176,,9632.0,8444.0,8920.0,9360.0,0.0,0.0,"(0.0, 0.0)",False,False
1642435554.2985168,11224,1642435554,296203301,,9608.0,8432.0,8980.0,9400.0,0.0,0.0,"(0.0, 0.0)",False,False
1642435554.3074822,11225,1642435554,306190645,,9652.0,8436.0,9008.0,9348.0,0.0,0.0,"(0.0, 0.0)",False,False
1642435554.3175254,11226,1642435554,316201895,,9604.0,8468.0,9060.0,9368.0,0.0,0.0,"(0.0, 0.0)",False,False
1642435554.32793,11227,1642435554,326302364,,9560.0,8464.0,9096.0,9360.0,0.0,0.0,"(0.0, 0.0)",False,False
1642435554.3374507,11228,1642435554,336221947,,9616.0,8464.0,9048.0,9320.0,0.0,0.0,"(0.0, 0.0)",False,False
1642435554.3477688,11229,1642435554,346245437,,9636.0,8492.0,9036.0,9368.0,0.0,0.0,"(0.0, 0.0)",False,False
1642435554.3575444,11230,1642435554,356214447,,9592.0,8464.0,9064.0,9368.0,0.0,0.0,"(0.0, 0.0)",False,False
1642435554.3679707,11231,1642435554,366196531,,9580.0,8480.0,9144.0,9328.0,0.0,0.0,"(0.0, 0.0)",False,False
1642435554.3780699,11232,1642435554,376249864,,9584.0,8432.0,9188.0,9332.0,0.0,0.0,"(0.0, 0.0)",False,False
1642435554.3884597,11233,1642435554,386252937,,9644.0,8480.0,9104.0,9372.0,0.0,0.0,"(0.0, 0.0)",False,False
1642435554.3975046,11234,1642435554,396233769,,9636.0,8488.0,9064.0,9352.0,0.0,0.0,"(0.0, 0.0)",False,False
1642435554.4079452,11235,1642435554,406191009,,9644.0,8452.0,9084.0,9332.0,0.0,0.0,"(0.0, 0.0)",False,False
1642435554.417755,11236,1642435554,416231321,,9732.0,8464.0,9076.0,9308.0,0.0,0.0,"(0.0, 0.0)",False,False
1642435554.427519,11237,1642435554,426202571,,9688.0,8496.0,9040.0,9348.0,0.0,0.0,"(0.0, 0.0)",False,False
1642435554.439294,11238,1642435554,436196893,,9688.0,8528.0,9088.0,9376.0,0.0,0.0,"(0.0, 0.0)",False,False
1642435554.4479842,11239,1642435554,446180070,,9620.0,8484.0,9144.0,9404.0,0.0,0.0,"(0.0, 0.0)",False,False
1642435554.4577453,11240,1642435554,456245123,,9632.0,8452.0,9144.0,9268.0,0.0,0.0,"(0.0, 0.0)",False,False
1642435554.4675107,11241,1642435554,466226478,,9656.0,8436.0,9132.0,9324.0,0.0,0.0,"(0.0, 0.0)",False,False
1642435554.4782572,11242,1642435554,476231062,,9656.0,8468.0,9088.0,9300.0,0.0,0.0,"(0.0, 0.0)",False,False
1642435554.4917748,11243,1642435554,486234863,,9664.0,8504.0,9052.0,9236.0,0.0,0.0,"(0.0, 0.0)",False,False
1642435554.4984798,11244,1642435554,496276009,,9704.0,8432.0,9068.0,9248.0,0.0,0.0,"(0.0, 0.0)",False,False
1642435554.507911,11245,1642435554,506396478,,9704.0,8496.0,9020.0,9264.0,0.0,0.0,"(0.0, 0.0)",False,False
1642435554.5184855,11246,1642435554,516270332,,9728.0,8460.0,9016.0,9300.0,0.0,0.0,"(0.0, 0.0)",False,False
1642435554.5283687,11247,1642435554,526291895,,9680.0,8452.0,9068.0,9296.0,0.0,0.0,"(0.0, 0.0)",False,False
1642435554.5373495,11248,1642435554,536185072,,9664.0,8388.0,9144.0,9340.0,0.0,0.0,"(0.0, 0.0)",False,False
1642435554.5480742,11249,1642435554,546601114,,9588.0,8432.0,9188.0,9344.0,0.0,0.0,"(0.0, 0.0)",False,False
1642435554.558997,11250,1642435554,556220332,,9620.0,8380.0,9080.0,9352.0,0.0,0.0,"(0.0, 0.0)",False,False
1642435554.567904,11251,1642435554,566204290,,9648.0,8404.0,9044.0,9328.0,0.0,0.0,"(0.0, 0.0)",False,False
1642435554.5782175,11252,1642435554,576189603,,9652.0,8420.0,9084.0,9320.0,0.0,0.0,"(0.0, 0.0)",False,False
1642435554.5876164,11253,1642435554,586195020,,9612.0,8432.0,9076.0,9292.0,0.0,0.0,"(0.0, 0.0)",False,False
1642435554.5974495,11254,1642435554,596235697,,9640.0,8460.0,9124.0,9300.0,0.0,0.0,"(0.0, 0.0)",False,False
1642435554.608468,11255,1642435554,606267936,,9652.0,8432.0,9052.0,9252.0,0.0,0.0,"(0.0, 0.0)",False,False
1642435554.6184826,11256,1642435554,616199082,,9712.0,8416.0,9048.0,9256.0,0.0,0.0,"(0.0, 0.0)",False,False
1642435554.6276324,11257,1642435554,626218249,,9740.0,8420.0,9008.0,9260.0,0.0,0.0,"(0.0, 0.0)",False,False
1642435554.637594,11258,1642435554,636198145,,9672.0,8360.0,9028.0,9272.0,0.0,0.0,"(0.0, 0.0)",False,False
1642435554.6479375,11259,1642435554,646202832,,9680.0,8384.0,9012.0,9244.0,0.0,0.0,"(0.0, 0.0)",False,False
1642435554.6579432,11260,1642435554,656194395,,9624.0,8372.0,9036.0,9296.0,0.0,0.0,"(0.0, 0.0)",False,False
1642435554.6675608,11261,1642435554,666224863,,9636.0,8412.0,9080.0,9340.0,0.0,0.0,"(0.0, 0.0)",False,False
1642435554.6783724,11262,1642435554,676264238,,9620.0,8308.0,9116.0,9420.0,0.0,0.0,"(0.0, 0.0)",False,False
1642435554.6890893,11263,1642435554,686479291,,9616.0,8328.0,9144.0,9404.0,0.0,0.0,"(0.0, 0.0)",False,False
1642435554.6991663,11264,1642435554,696254238,,9600.0,8356.0,9096.0,9332.0,0.0,0.0,"(0.0, 0.0)",False,False
1642435554.7074594,11265,1642435554,706202051,,9636.0,8292.0,9112.0,9324.0,0.0,0.0,"(0.0, 0.0)",False,False
1642435554.7178292,11266,1642435554,716207728,,9684.0,8344.0,9100.0,9328.0,0.0,0.0,"(0.0, 0.0)",False,False
1642435554.7282674,11267,1642435554,726248978,,9680.0,8404.0,9080.0,9308.0,0.0,0.0,"(0.0, 0.0)",False,False
1642435554.7383258,11268,1642435554,736289238,,9676.0,8392.0,9108.0,9396.0,0.0,0.0,"(0.0, 0.0)",False,False
1642435554.7481358,11269,1642435554,746255332,,9644.0,8396.0,9112.0,9428.0,0.0,0.0,"(0.0, 0.0)",False,False
1642435554.7581565,11270,1642435554,756296895,,9688.0,8384.0,9104.0,9432.0,0.0,0.0,"(0.0, 0.0)",False,False
1642435554.7672973,11271,1642435554,766226426,,9668.0,8400.0,9108.0,9380.0,0.0,0.0,"(0.0, 0.0)",False,False
1642435554.788933,11272,1642435554,776229811,,9684.0,8432.0,9112.0,9340.0,0.0,0.0,"(0.0, 0.0)",False,False
1642435554.794312,11273,1642435554,786264134,,9644.0,8432.0,9136.0,9352.0,0.0,0.0,"(0.0, 0.0)",False,False
1642435554.7978675,11274,1642435554,796197988,,9648.0,8476.0,9132.0,9236.0,0.0,0.0,"(0.0, 0.0)",False,False
1642435554.8299704,11275,1642435554,806190488,,9636.0,8468.0,9100.0,9320.0,0.0,0.0,"(0.0, 0.0)",False,False
1642435554.835049,11276,1642435554,816190020,,9620.0,8488.0,9084.0,9300.0,0.0,0.0,"(0.0, 0.0)",False,False
1642435554.8350856,11277,1642435554,826199082,,9652.0,8456.0,9028.0,9284.0,0.0,0.0,"(0.0, 0.0)",False,False
1642435554.8390822,11278,1642435554,836173613,,9608.0,8368.0,9092.0,9344.0,0.0,0.0,"(0.0, 0.0)",False,False
1642435554.847815,11279,1642435554,846202103,,9620.0,8384.0,9088.0,9380.0,0.0,0.0,"(0.0, 0.0)",False,False
1642435554.8584585,11280,1642435554,856287051,,9604.0,8456.0,9068.0,9356.0,0.0,0.0,"(0.0, 0.0)",False,False
1642435554.8683739,11281,1642435554,866319342,,9540.0,8420.0,9056.0,9304.0,0.0,0.0,"(0.0, 0.0)",False,False
1642435554.877475,11282,1642435554,876181634,,9560.0,8432.0,9068.0,9280.0,0.0,0.0,"(0.0, 0.0)",False,False
1642435554.8875117,11283,1642435554,886214134,,9620.0,8400.0,8968.0,9260.0,0.0,0.0,"(0.0, 0.0)",False,False
1642435554.8977098,11284,1642435554,896201061,,9612.0,8476.0,8972.0,9224.0,0.0,0.0,"(0.0, 0.0)",False,False
1642435554.9076626,11285,1642435554,906184915,,9568.0,8432.0,8968.0,9260.0,0.0,0.0,"(0.0, 0.0)",False,False
1642435554.9179046,11286,1642435554,916566739,,9532.0,8432.0,9020.0,9256.0,0.0,0.0,"(0.0, 0.0)",False,False
1642435554.9280179,11287,1642435554,926241842,,9532.0,8420.0,9024.0,9252.0,0.0,0.0,"(0.0, 0.0)",False,False
1642435554.9381828,11288,1642435554,936216634,,9528.0,8404.0,8980.0,9316.0,0.0,0.0,"(0.0, 0.0)",False,False
1642435554.9490535,11289,1642435554,946158822,,9472.0,8456.0,9024.0,9248.0,0.0,0.0,"(0.0, 0.0)",False,False
1642435554.9586277,11290,1642435554,956196842,,9444.0,8372.0,8984.0,9288.0,0.0,0.0,"(0.0, 0.0)",False,False
1642435554.9681838,11291,1642435554,966364655,,9428.0,8388.0,8996.0,9264.0,0.0,0.0,"(0.0, 0.0)",False,False
1642435554.977409,11292,1642435554,976202884,,9428.0,8380.0,9040.0,9312.0,0.0,0.0,"(0.0, 0.0)",False,False
1642435554.9876606,11293,1642435554,986419447,,9432.0,8396.0,9008.0,9204.0,0.0,0.0,"(0.0, 0.0)",False,False
1642435554.9978752,11294,1642435554,996171895,,9484.0,8420.0,8936.0,9252.0,0.0,0.0,"(0.0, 0.0)",False,False
1642435555.0074103,11295,1642435555,6212415,,9524.0,8400.0,8848.0,9200.0,0.0,0.0,"(0.0, 0.0)",False,False
1642435555.0178595,11296,1642435555,16437103,,9544.0,8440.0,8876.0,9180.0,0.0,0.0,"(0.0, 0.0)",False,False
1642435555.0282166,11297,1642435555,26423874,,9456.0,8368.0,8884.0,9232.0,0.0,0.0,"(0.0, 0.0)",False,False
1642435555.038306,11298,1642435555,36347780,,9440.0,8332.0,8884.0,9284.0,0.0,0.0,"(0.0, 0.0)",False,False
1642435555.048201,11299,1642435555,46369655,,9412.0,8380.0,8920.0,9312.0,0.0,0.0,"(0.0, 0.0)",False,False
1642435555.0587811,11300,1642435555,56351217,,9424.0,8368.0,8908.0,9308.0,0.0,0.0,"(0.0, 0.0)",False,False
1642435555.0678227,11301,1642435555,66239707,,9380.0,8320.0,8916.0,9272.0,0.0,0.0,"(0.0, 0.0)",False,False
1642435555.078043,11302,1642435555,76184707,,9368.0,8352.0,8940.0,9260.0,0.0,0.0,"(0.0, 0.0)",False,False
1642435555.0879066,11303,1642435555,86201322,,9400.0,8336.0,8912.0,9276.0,0.0,0.0,"(0.0, 0.0)",False,False
1642435555.097593,11304,1642435555,96261426,,9372.0,8332.0,8932.0,9228.0,0.0,0.0,"(0.0, 0.0)",False,False
1642435555.1082363,11305,1642435555,106212520,,9412.0,8332.0,8868.0,9188.0,0.0,0.0,"(0.0, 0.0)",False,False
1642435555.1176448,11306,1642435555,116253665,,9412.0,8356.0,8872.0,9232.0,0.0,0.0,"(0.0, 0.0)",False,False
1642435555.127832,11307,1642435555,126194603,,9444.0,8376.0,8840.0,9252.0,0.0,0.0,"(0.0, 0.0)",False,False
1642435555.138051,11308,1642435555,136211894,,9460.0,8304.0,8820.0,9224.0,0.0,0.0,"(0.0, 0.0)",False,False
1642435555.1478848,11309,1642435555,146205280,,9428.0,8372.0,8836.0,9232.0,0.0,0.0,"(0.0, 0.0)",False,False
1642435555.157458,11310,1642435555,156204759,,9400.0,8296.0,8856.0,9176.0,0.0,0.0,"(0.0, 0.0)",False,False
1642435555.1674857,11311,1642435555,166245592,,9356.0,8332.0,8852.0,9176.0,0.0,0.0,"(0.0, 0.0)",False,False
1642435555.1776247,11312,1642435555,176241999,,9352.0,8316.0,8856.0,9172.0,0.0,0.0,"(0.0, 0.0)",False,False
1642435555.1884754,11313,1642435555,186220801,,9348.0,8328.0,8836.0,9112.0,0.0,0.0,"(0.0, 0.0)",False,False
1642435555.1979716,11314,1642435555,196191582,,9324.0,8288.0,8832.0,9136.0,0.0,0.0,"(0.0, 0.0)",False,False
1642435555.2077515,11315,1642435555,206207728,,9304.0,8256.0,8824.0,9152.0,0.0,0.0,"(0.0, 0.0)",False,False
1642435555.2173033,11316,1642435555,216175853,,9404.0,8304.0,8832.0,9196.0,0.0,0.0,"(0.0, 0.0)",False,False
1642435555.2288363,11317,1642435555,226535020,,9336.0,8280.0,8908.0,9224.0,0.0,0.0,"(0.0, 0.0)",False,False
1642435555.2382016,11318,1642435555,236341686,,9308.0,8276.0,8832.0,9176.0,0.0,0.0,"(0.0, 0.0)",False,False
1642435555.2475567,11319,1642435555,246179915,,9400.0,8268.0,8820.0,9180.0,0.0,0.0,"(0.0, 0.0)",False,False
1642435555.257809,11320,1642435555,256228717,,9420.0,8328.0,8784.0,9112.0,0.0,0.0,"(0.0, 0.0)",False,False
1642435555.2682204,11321,1642435555,266303092,,9308.0,8288.0,8872.0,9068.0,0.0,0.0,"(0.0, 0.0)",False,False
1642435555.278034,11322,1642435555,276182363,,9300.0,8280.0,8912.0,9060.0,0.0,0.0,"(0.0, 0.0)",False,False
1642435555.2874272,11323,1642435555,286410540,,9212.0,8240.0,8888.0,9068.0,0.0,0.0,"(0.0, 0.0)",False,False
1642435555.2976825,11324,1642435555,296239342,,9192.0,8224.0,8944.0,9060.0,0.0,0.0,"(0.0, 0.0)",False,False
1642435555.3078384,11325,1642435555,306204238,,9208.0,8200.0,8912.0,9096.0,0.0,0.0,"(0.0, 0.0)",False,False
1642435555.3177104,11326,1642435555,316201322,,9236.0,8212.0,8900.0,9068.0,0.0,0.0,"(0.0, 0.0)",False,False
1642435555.327589,11327,1642435555,326190176,,9200.0,8232.0,8868.0,9048.0,0.0,0.0,"(0.0, 0.0)",False,False
1642435555.3404396,11328,1642435555,336252572,,9264.0,8220.0,8808.0,9008.0,0.0,0.0,"(0.0, 0.0)",False,False
1642435555.3477752,11329,1642435555,346222988,,9344.0,8232.0,8768.0,8988.0,0.0,0.0,"(0.0, 0.0)",False,False
1642435555.3576052,11330,1642435555,356187728,,9364.0,8276.0,8716.0,8948.0,0.0,0.0,"(0.0, 0.0)",False,False
1642435555.36782,11331,1642435555,366216894,,9332.0,8288.0,8684.0,8904.0,0.0,0.0,"(0.0, 0.0)",False,False
1642435555.3777356,11332,1642435555,376278926,,9280.0,8292.0,8700.0,8908.0,0.0,0.0,"(0.0, 0.0)",False,False
1642435555.3900363,11333,1642435555,386260644,,9188.0,8284.0,8808.0,8920.0,0.0,0.0,"(0.0, 0.0)",False,False
1642435555.397427,11334,1642435555,396201999,,9112.0,8216.0,8892.0,9016.0,0.0,0.0,"(0.0, 0.0)",False,False
1642435555.4073772,11335,1642435555,406180853,,9148.0,8140.0,8832.0,9000.0,0.0,0.0,"(0.0, 0.0)",False,False
1642435555.4188821,11336,1642435555,416289759,,9224.0,8124.0,8776.0,9028.0,0.0,0.0,"(0.0, 0.0)",False,False
1642435555.427681,11337,1642435555,426249238,,9276.0,8080.0,8656.0,8992.0,0.0,0.0,"(0.0, 0.0)",False,False
1642435555.43794,11338,1642435555,436187311,,9272.0,8076.0,8704.0,9004.0,0.0,0.0,"(0.0, 0.0)",False,False
1642435555.4473536,11339,1642435555,446186426,,9244.0,8052.0,8752.0,8980.0,0.0,0.0,"(0.0, 0.0)",False,False
1642435555.4576595,11340,1642435555,456213405,,9192.0,8072.0,8792.0,8980.0,0.0,0.0,"(0.0, 0.0)",False,False
1642435555.467373,11341,1642435555,466181061,,9224.0,8048.0,8792.0,8984.0,0.0,0.0,"(0.0, 0.0)",False,False
1642435555.478611,11342,1642435555,476184759,,9208.0,8076.0,8788.0,8944.0,0.0,0.0,"(0.0, 0.0)",False,False
1642435555.4884136,11343,1642435555,486276217,,9272.0,8124.0,8764.0,8912.0,0.0,0.0,"(0.0, 0.0)",False,False
1642435555.497529,11344,1642435555,496182103,,9256.0,8100.0,8756.0,8852.0,0.0,0.0,"(0.0, 0.0)",False,False
1642435555.50787,11345,1642435555,506203301,,9248.0,8132.0,8832.0,8844.0,0.0,0.0,"(0.0, 0.0)",False,False
1642435555.5178683,11346,1642435555,516231738,,9200.0,8096.0,8848.0,8868.0,0.0,0.0,"(0.0, 0.0)",False,False
1642435555.528149,11347,1642435555,526269863,,9188.0,8084.0,8884.0,8904.0,0.0,0.0,"(0.0, 0.0)",False,False
1642435555.5375602,11348,1642435555,536205592,,9184.0,8100.0,8796.0,8904.0,0.0,0.0,"(0.0, 0.0)",False,False
1642435555.5478764,11349,1642435555,546252624,,9216.0,8060.0,8836.0,8832.0,0.0,0.0,"(0.0, 0.0)",False,False
1642435555.557444,11350,1642435555,556245176,,9204.0,8040.0,8868.0,8812.0,0.0,0.0,"(0.0, 0.0)",False,False
1642435555.5677307,11351,1642435555,566243769,,9252.0,8028.0,8860.0,8832.0,0.0,0.0,"(0.0, 0.0)",False,False
1642435555.5783203,11352,1642435555,576217676,,9248.0,8040.0,8844.0,8800.0,0.0,0.0,"(0.0, 0.0)",False,False
1642435555.5881686,11353,1642435555,586253769,,9284.0,8072.0,8808.0,8784.0,0.0,0.0,"(0.0, 0.0)",False,False
1642435555.5983353,11354,1642435555,596491791,,9320.0,8032.0,8752.0,8772.0,0.0,0.0,"(0.0, 0.0)",False,False
1642435555.6076722,11355,1642435555,606182103,,9272.0,8044.0,8772.0,8744.0,0.0,0.0,"(0.0, 0.0)",False,False
1642435555.6177976,11356,1642435555,616241478,,9268.0,8036.0,8828.0,8728.0,0.0,0.0,"(0.0, 0.0)",False,False
1642435555.627722,11357,1642435555,626251790,,9232.0,8060.0,8824.0,8808.0,0.0,0.0,"(0.0, 0.0)",False,False
1642435555.6374145,11358,1642435555,636194551,,9092.0,8044.0,8916.0,8764.0,0.0,0.0,"(0.0, 0.0)",False,False
1642435555.648033,11359,1642435555,646280228,,9016.0,8096.0,9136.0,8728.0,0.0,0.0,"(0.0, 0.0)",False,False
1642435555.6579013,11360,1642435555,656237311,,9044.0,8076.0,9100.0,8748.0,0.0,0.0,"(0.0, 0.0)",False,False
1642435555.669154,11361,1642435555,666247884,,9192.0,8060.0,8972.0,8712.0,0.0,0.0,"(0.0, 0.0)",False,False
1642435555.6777725,11362,1642435555,676185853,,9352.0,8028.0,8864.0,8720.0,0.0,0.0,"(0.0, 0.0)",False,False
1642435555.6883392,11363,1642435555,686223092,,9536.0,8028.0,8608.0,8712.0,0.0,0.0,"(0.0, 0.0)",False,False
1642435555.697723,11364,1642435555,696207207,,9608.0,7992.0,8536.0,8732.0,0.0,0.0,"(0.0, 0.0)",False,False
1642435555.707788,11365,1642435555,706215436,,9664.0,7988.0,8444.0,8752.0,0.0,0.0,"(0.0, 0.0)",False,False
1642435555.7180917,11366,1642435555,716209811,,9548.0,7972.0,8464.0,8708.0,0.0,0.0,"(0.0, 0.0)",False,False
1642435555.7278311,11367,1642435555,726209759,,9472.0,7948.0,8708.0,8692.0,0.0,0.0,"(0.0, 0.0)",False,False
1642435555.738361,11368,1642435555,736204603,,9332.0,7944.0,8860.0,8732.0,0.0,0.0,"(0.0, 0.0)",False,False
1642435555.750042,11369,1642435555,746197832,,9144.0,7956.0,8936.0,8688.0,0.0,0.0,"(0.0, 0.0)",False,False
1642435555.7574186,11370,1642435555,756191842,,9088.0,7924.0,8952.0,8736.0,0.0,0.0,"(0.0, 0.0)",False,False
1642435555.76819,11371,1642435555,766196478,,8984.0,7920.0,8936.0,8692.0,0.0,0.0,"(0.0, 0.0)",False,False
1642435555.7777674,11372,1642435555,776227103,,8996.0,7904.0,8940.0,8712.0,0.0,0.0,"(0.0, 0.0)",False,False
1642435555.7891352,11373,1642435555,786191894,,9004.0,7908.0,8916.0,8668.0,0.0,0.0,"(0.0, 0.0)",False,False
1642435555.7977996,11374,1642435555,796192571,,9064.0,7948.0,8856.0,8632.0,0.0,0.0,"(0.0, 0.0)",False,False
1642435555.8078654,11375,1642435555,806188717,,9104.0,7920.0,8804.0,8556.0,0.0,0.0,"(0.0, 0.0)",False,False
1642435555.8175757,11376,1642435555,816220228,,9144.0,7952.0,8760.0,8568.0,0.0,0.0,"(0.0, 0.0)",False,False
1642435555.8289316,11377,1642435555,826222155,,9152.0,7992.0,8760.0,8588.0,0.0,0.0,"(0.0, 0.0)",False,False
1642435555.8376987,11378,1642435555,836192051,,9132.0,7940.0,8700.0,8576.0,0.0,0.0,"(0.0, 0.0)",False,False
1642435555.847735,11379,1642435555,846282571,,9184.0,7892.0,8772.0,8588.0,0.0,0.0,"(0.0, 0.0)",False,False
1642435555.858124,11380,1642435555,856252363,,9088.0,7916.0,8772.0,8528.0,0.0,0.0,"(0.0, 0.0)",False,False
1642435555.8679433,11381,1642435555,866240384,,9020.0,7928.0,8824.0,8540.0,0.0,0.0,"(0.0, 0.0)",False,False
1642435555.8775299,11382,1642435555,876201582,,8992.0,7988.0,8860.0,8516.0,0.0,0.0,"(0.0, 0.0)",False,False
1642435555.8877769,11383,1642435555,886282467,,9040.0,7972.0,8908.0,8524.0,0.0,0.0,"(0.0, 0.0)",False,False
1642435555.8978279,11384,1642435555,896222207,,9052.0,7948.0,8876.0,8504.0,0.0,0.0,"(0.0, 0.0)",False,False
1642435555.9081538,11385,1642435555,906299707,,9156.0,7904.0,8804.0,8576.0,0.0,0.0,"(0.0, 0.0)",False,False
1642435555.9188044,11386,1642435555,916253092,,9132.0,7888.0,8808.0,8568.0,0.0,0.0,"(0.0, 0.0)",False,False
1642435555.9281797,11387,1642435555,926218301,,9080.0,7920.0,8752.0,8556.0,0.0,0.0,"(0.0, 0.0)",False,False
1642435555.9377036,11388,1642435555,936191113,,9108.0,7892.0,8816.0,8572.0,0.0,0.0,"(0.0, 0.0)",False,False
1642435555.948233,11389,1642435555,946245280,,9128.0,7892.0,8812.0,8564.0,0.0,0.0,"(0.0, 0.0)",False,False
1642435555.9576921,11390,1642435555,956232519,,9140.0,7908.0,8768.0,8564.0,0.0,0.0,"(0.0, 0.0)",False,False
1642435555.9677417,11391,1642435555,966189446,,9056.0,7948.0,8860.0,8548.0,0.0,0.0,"(0.0, 0.0)",False,False
1642435555.9810863,11392,1642435555,976177311,,9008.0,7924.0,8940.0,8488.0,0.0,0.0,"(0.0, 0.0)",False,False
1642435555.9876664,11393,1642435555,986201842,,8896.0,7988.0,8964.0,8508.0,0.0,0.0,"(0.0, 0.0)",False,False
1642435555.9980512,11394,1642435555,996224030,,8936.0,8004.0,9000.0,8492.0,0.0,0.0,"(0.0, 0.0)",False,False
1642435556.0073657,11395,1642435556,6190801,,8976.0,8000.0,8864.0,8444.0,0.0,0.0,"(0.0, 0.0)",False,False
1642435556.0179067,11396,1642435556,16165384,,9024.0,8004.0,8832.0,8496.0,0.0,0.0,"(0.0, 0.0)",False,False
1642435556.0279026,11397,1642435556,26267624,,9044.0,8008.0,8832.0,8448.0,0.0,0.0,"(0.0, 0.0)",False,False
1642435556.037615,11398,1642435556,36190332,,9096.0,7984.0,8784.0,8460.0,0.0,0.0,"(0.0, 0.0)",False,False
1642435556.0504682,11399,1642435556,46551426,,9104.0,7956.0,8736.0,8488.0,0.0,0.0,"(0.0, 0.0)",False,False
1642435556.0577712,11400,1642435556,56242884,,9080.0,7956.0,8692.0,8492.0,0.0,0.0,"(0.0, 0.0)",False,False
1642435556.0698829,11401,1642435556,66243092,,9004.0,7964.0,8704.0,8464.0,0.0,0.0,"(0.0, 0.0)",False,False
1642435556.0782497,11402,1642435556,76298978,,8988.0,7988.0,8760.0,8524.0,0.0,0.0,"(0.0, 0.0)",False,False
1642435556.0902257,11403,1642435556,86258821,,8956.0,8004.0,8800.0,8516.0,0.0,0.0,"(0.0, 0.0)",False,False
1642435556.0972598,11404,1642435556,96228405,,8912.0,7996.0,8860.0,8464.0,0.0,0.0,"(0.0, 0.0)",False,False
1642435556.1092274,11405,1642435556,106217623,,8896.0,8044.0,8812.0,8500.0,0.0,0.0,"(0.0, 0.0)",False,False
1642435556.117914,11406,1642435556,116197259,,8836.0,8056.0,8844.0,8464.0,0.0,0.0,"(0.0, 0.0)",False,False
1642435556.1282117,11407,1642435556,126247103,,8832.0,8060.0,8824.0,8424.0,0.0,0.0,"(0.0, 0.0)",False,False
1642435556.1375031,11408,1642435556,136314238,,8816.0,8100.0,8856.0,8444.0,0.0,0.0,"(0.0, 0.0)",False,False
1642435556.1481924,11409,1642435556,146253196,,8792.0,8072.0,8844.0,8444.0,0.0,0.0,"(0.0, 0.0)",False,False
1642435556.1578612,11410,1642435556,156234394,,8836.0,8036.0,8836.0,8460.0,0.0,0.0,"(0.0, 0.0)",False,False
1642435556.1682227,11411,1642435556,166368613,,8892.0,8084.0,8744.0,8464.0,0.0,0.0,"(0.0, 0.0)",False,False
1642435556.178417,11412,1642435556,176162363,,8964.0,8100.0,8668.0,8392.0,0.0,0.0,"(0.0, 0.0)",False,False
1642435556.1887255,11413,1642435556,186252207,,8984.0,8136.0,8644.0,8376.0,0.0,0.0,"(0.0, 0.0)",False,False
1642435556.1981282,11414,1642435556,196234603,,9024.0,8268.0,8640.0,8324.0,0.0,0.0,"(0.0, 0.0)",False,False
1642435556.2088082,11415,1642435556,206288769,,9032.0,8184.0,8620.0,8384.0,0.0,0.0,"(0.0, 0.0)",False,False
1642435556.2176955,11416,1642435556,216218821,,9080.0,8160.0,8584.0,8404.0,0.0,0.0,"(0.0, 0.0)",False,False
1642435556.228362,11417,1642435556,226211946,,8992.0,8104.0,8596.0,8508.0,0.0,0.0,"(0.0, 0.0)",False,False
1642435556.2393584,11418,1642435556,236223040,,8968.0,8040.0,8664.0,8464.0,0.0,0.0,"(0.0, 0.0)",False,False
1642435556.2482762,11419,1642435556,246214811,,8968.0,8048.0,8792.0,8496.0,0.0,0.0,"(0.0, 0.0)",False,False
