Time,header.seq,header.stamp.secs,header.stamp.nsecs,header.frame_id,child_frame_id,pose.pose.position.x,pose.pose.position.y,pose.pose.position.z,pose.pose.orientation.x,pose.pose.orientation.y,pose.pose.orientation.z,pose.pose.orientation.w,pose.covariance,twist.twist.linear.x,twist.twist.linear.y,twist.twist.linear.z,twist.twist.angular.x,twist.twist.angular.y,twist.twist.angular.z,twist.covariance
1642435551.7507653,9930,1642435550,748615980,mocap,DragonFly17/base_link,-1.4112269743724561,-0.421643470238531,1.0442352360846083,0.0026835223562516925,0.0057845407987706906,-0.05204502691482086,0.9986243803197276,"(7.583805069543924e-07, 0.0, 0.0, 0.0, 0.0, 0.0, 0.0, 7.583805069543924e-07, 0.0, 0.0, 0.0, 0.0, 0.0, 0.0, 7.583805069543924e-07, 0.0, 0.0, 0.0, 0.0, 0.0, 0.0, 7.583805424649528e-07, 6.022122820691434e-14, -6.3504273190210944e-15, 0.0, 0.0, 0.0, 6.022122820690527e-14, 7.583806258124123e-07, 2.7116979822628024e-15, 0.0, 0.0, 0.0, -6.350427319027109e-15, 2.711697982299019e-15, 7.583806536929317e-07)",-0.008688361280525766,-0.03153295914592543,0.009143474327671867,-0.23293317871260585,0.1412951425004142,-0.04556449135804074,"(0.017778268493024912, 0.0, 0.0, 0.0, 0.0, 0.0, 0.0, 0.017778268493024912, 0.0, 0.0, 0.0, 0.0, 0.0, 0.0, 0.017778268493024912, 0.0, 0.0, 0.0, 0.0, 0.0, 0.0, 0.017778270312548375, 2.9281392266262552e-09, -8.261664623803042e-10, 0.0, 0.0, 0.0, 2.9281392266264765e-09, 0.017778274739392867, 3.482044649540667e-10, 0.0, 0.0, 0.0, -8.261664623793505e-10, 3.4820446495303644e-10, 0.0177782758633556)"
1642435551.7508144,9931,1642435550,759860992,mocap,DragonFly17/base_link,-1.4113220633550154,-0.4219592942986215,1.0443121868990615,0.0014378634166153288,0.006469886188393023,-0.05221596173033229,0.9986138224869984,"(8.072843838006626e-07, 0.0, 0.0, 0.0, 0.0, 0.0, 0.0, 8.072843838006626e-07, 0.0, 0.0, 0.0, 0.0, 0.0, 0.0, 8.072843838006626e-07, 0.0, 0.0, 0.0, 0.0, 0.0, 0.0, 8.072844789986241e-07, 1.436335767744478e-13, -4.436650898504813e-14, 0.0, 0.0, 0.0, 1.4363357677444868e-13, 8.072846378365909e-07, 2.6025173359854523e-14, 0.0, 0.0, 0.0, -4.4366508985036793e-14, 2.6025173359793144e-14, 8.072847123213392e-07)",-0.008660997347077143,-0.02973929922803119,0.007777096030570429,-0.22461997340560055,0.13815217492305593,-0.03534187236222791,"(0.016458590135479616, 0.0, 0.0, 0.0, 0.0, 0.0, 0.0, 0.016458590135479616, 0.0, 0.0, 0.0, 0.0, 0.0, 0.0, 0.016458590135479616, 0.0, 0.0, 0.0, 0.0, 0.0, 0.0, 0.016458593592272433, 5.243278300924976e-09, -1.7174722299742392e-09, 0.0, 0.0, 0.0, 5.243278300924704e-09, 0.0164585994081587, 1.003245460971018e-09, 0.0, 0.0, 0.0, -1.717472229972862e-09, 1.0032454609716819e-09, 0.01645860217070099)"
1642435551.7508557,9932,1642435550,769568682,mocap,DragonFly17/base_link,-1.411359914560238,-0.42217869133409786,1.0443695459759776,0.0009710634360271949,0.006719165331736424,-0.05222687107980511,0.9986121688574976,"(7.811193422447419e-07, 0.0, 0.0, 0.0, 0.0, 0.0, 0.0, 7.811193422447419e-07, 0.0, 0.0, 0.0, 0.0, 0.0, 0.0, 7.811193422447419e-07, 0.0, 0.0, 0.0, 0.0, 0.0, 0.0, 7.81119406048997e-07, 9.835983998633494e-14, -2.5167658247303237e-14, 0.0, 0.0, 0.0, 9.835983998632613e-14, 7.811195096096235e-07, 1.5052012373737054e-14, 0.0, 0.0, 0.0, -2.5167658247268565e-14, 1.5052012373796458e-14, 7.811195649211994e-07)",-0.0058935306536844175,-0.02546400948689067,0.006658178538157975,-0.1484406191622023,0.09068288199063579,-0.01590830763986775,"(0.016933815660991877, 0.0, 0.0, 0.0, 0.0, 0.0, 0.0, 0.016933815660991877, 0.0, 0.0, 0.0, 0.0, 0.0, 0.0, 0.016933815660991877, 0.0, 0.0, 0.0, 0.0, 0.0, 0.0, 0.01693382062720506, 7.514834070794181e-09, -2.150622434690035e-09, 0.0, 0.0, 0.0, 7.514834070793819e-09, 0.016933828367232506, 1.309245098784365e-09, 0.0, 0.0, 0.0, -2.1506224346890814e-09, 1.3092450987816406e-09, 0.016933832576374572)"
1642435551.7508886,9933,1642435550,779582739,mocap,DragonFly17/base_link,-1.4111385416606728,-0.4220659203113987,1.0443396768790119,0.0038910967629979935,0.005090275886327265,-0.05140483314548689,0.9986573444313521,"(7.843023292857103e-07, 0.0, 0.0, 0.0, 0.0, 0.0, 0.0, 7.843023292857103e-07, 0.0, 0.0, 0.0, 0.0, 0.0, 0.0, 7.843023292857103e-07, 0.0, 0.0, 0.0, 0.0, 0.0, 0.0, 7.843023589114858e-07, 4.642863493952136e-14, -1.013956128231942e-14, 0.0, 0.0, 0.0, 4.642863493951942e-14, 7.843024078381725e-07, 6.0763506463785606e-15, 0.0, 0.0, 0.0, -1.0139561282300146e-14, 6.076350646417054e-15, 7.843024343539487e-07)",0.010674580071955424,-0.003751361635196633,0.0009582798474813085,0.27464112132193774,-0.17330070968254546,0.08831995676886717,"(0.016969151108751794, 0.0, 0.0, 0.0, 0.0, 0.0, 0.0, 0.016969151108751794, 0.0, 0.0, 0.0, 0.0, 0.0, 0.0, 0.016969151108751794, 0.0, 0.0, 0.0, 0.0, 0.0, 0.0, 0.016969154798599218, 5.693763248878309e-09, -1.3458059934907357e-09, 0.0, 0.0, 0.0, 5.693763248878123e-09, 0.016969160607307562, 8.241024883684506e-10, 0.0, 0.0, 0.0, -1.3458059934918996e-09, 8.241024883665733e-10, 0.01696916389296364)"
1642435551.750938,9934,1642435550,789261580,mocap,DragonFly17/base_link,-1.411056134335407,-0.42212901527303776,1.044358278836143,0.004980283884310862,0.004492760822024321,-0.051051079855237554,0.9986735197842465,"(7.79482108893196e-07, 0.0, 0.0, 0.0, 0.0, 0.0, 0.0, 7.79482108893196e-07, 0.0, 0.0, 0.0, 0.0, 0.0, 0.0, 7.79482108893196e-07, 0.0, 0.0, 0.0, 0.0, 0.0, 0.0, 7.79482283367066e-07, 2.28200350624636e-13, -1.0554097903637611e-13, 0.0, 0.0, 0.0, 2.2820035062467164e-13, 7.794825038019998e-07, 6.63080079373651e-14, 0.0, 0.0, 0.0, -1.0554097903633087e-13, 6.630800793740559e-14, 7.794826157725595e-07)",0.009405359434398415,-0.005344258784535027,0.0015135845206152346,0.24182111616264515,-0.15093173372610005,0.07845801075088578,"(0.01713839098037514, 0.0, 0.0, 0.0, 0.0, 0.0, 0.0, 0.01713839098037514, 0.0, 0.0, 0.0, 0.0, 0.0, 0.0, 0.01713839098037514, 0.0, 0.0, 0.0, 0.0, 0.0, 0.0, 0.017138395882555654, 6.4009044455317174e-09, -2.8377584083796848e-09, 0.0, 0.0, 0.0, 6.4009044455309515e-09, 0.017138402084295293, 1.7879487230084405e-09, 0.0, 0.0, 0.0, -2.8377584083800016e-09, 1.7879487230091043e-09, 0.017138405206648423)"
1642435551.7509959,9935,1642435550,799703360,mocap,DragonFly17/base_link,-1.4110297292831961,-0.4222900086425402,1.044401380753744,0.005034680892250327,0.004357111348079604,-0.050885944914872375,0.9986822758911604,"(7.932833149399349e-07, 0.0, 0.0, 0.0, 0.0, 0.0, 0.0, 7.932833149399349e-07, 0.0, 0.0, 0.0, 0.0, 0.0, 0.0, 7.932833149399349e-07, 0.0, 0.0, 0.0, 0.0, 0.0, 0.0, 7.932834010937748e-07, 1.1206873065601165e-13, -5.337178045640873e-14, 0.0, 0.0, 0.0, 1.1206873065603845e-13, 7.932835118857539e-07, 3.319552011558279e-14, 0.0, 0.0, 0.0, -5.337178045638649e-14, 3.319552011560942e-14, 7.93283564968766e-07)",0.00524942949318564,-0.011514290710233764,0.003115287543737248,0.10090248844262331,-0.07576904091276973,0.05011336484062981,"(0.016741899181391167, 0.0, 0.0, 0.0, 0.0, 0.0, 0.0, 0.016741899181391167, 0.0, 0.0, 0.0, 0.0, 0.0, 0.0, 0.016741899181391167, 0.0, 0.0, 0.0, 0.0, 0.0, 0.0, 0.016741906652978283, 9.41242158554105e-09, -4.825009724524317e-09, 0.0, 0.0, 0.0, 9.412421585540061e-09, 0.01674191576622872, 3.02627831607942e-09, 0.0, 0.0, 0.0, -4.825009724523787e-09, 3.0262783160783896e-09, 0.01674192009653786)"
1642435551.7510452,9936,1642435550,809780836,mocap,DragonFly17/base_link,-1.4111689372524483,-0.4227998322479429,1.0445074805046937,0.0019447937216771466,0.005621579272238271,-0.05069414758344991,0.9986965099692031,"(7.867999428830841e-07, 0.0, 0.0, 0.0, 0.0, 0.0, 0.0, 7.867999428830841e-07, 0.0, 0.0, 0.0, 0.0, 0.0, 0.0, 7.867999428830841e-07, 0.0, 0.0, 0.0, 0.0, 0.0, 0.0, 7.867999764844332e-07, 3.548016304010271e-14, -1.9987636496072487e-14, 0.0, 0.0, 0.0, 3.5480163040107544e-14, 7.868000034740151e-07, 1.433304148761215e-14, 0.0, 0.0, 0.0, -1.9987636496072525e-14, 1.4333041487640322e-14, 7.868000193491626e-07)",-0.0059808538839710625,-0.03449639914939575,0.007473630547289268,-0.3116369690574363,0.13457060240415852,0.045228539625255346,"(0.016835047775655587, 0.0, 0.0, 0.0, 0.0, 0.0, 0.0, 0.016835047775655587, 0.0, 0.0, 0.0, 0.0, 0.0, 0.0, 0.016835047775655587, 0.0, 0.0, 0.0, 0.0, 0.0, 0.0, 0.016835052565755723, 5.597605878866013e-09, -3.083068412943339e-09, 0.0, 0.0, 0.0, 5.597605878865768e-09, 0.016835057515627916, 2.025912586612929e-09, 0.0, 0.0, 0.0, -3.0830684129432322e-09, 2.0259125866127457e-09, 0.01683506003691493)"
1642435551.7511032,9937,1642435550,819345236,mocap,DragonFly17/base_link,-1.4111924093638653,-0.42305919461789554,1.0445839480026737,0.0009539082172004492,0.0059286892625626105,-0.05058213554102708,0.998701851538718,"(7.767097910261799e-07, 0.0, 0.0, 0.0, 0.0, 0.0, 0.0, 7.767097910261799e-07, 0.0, 0.0, 0.0, 0.0, 0.0, 0.0, 7.767097910261799e-07, 0.0, 0.0, 0.0, 0.0, 0.0, 0.0, 7.767098998072473e-07, 2.09172976695865e-13, 2.8593136742671305e-14, 0.0, 0.0, 0.0, 2.0917297669586834e-13, 7.767102482898422e-07, -1.0138534070266719e-14, 0.0, 0.0, 0.0, 2.8593136742686716e-14, -1.0138534070225471e-14, 7.7671033767161e-07)",-0.003945525413062095,-0.03016660182217904,0.007747409721152598,-0.24883922478358012,0.09984433436084225,0.03338665617614448,"(0.01718491691724094, 0.0, 0.0, 0.0, 0.0, 0.0, 0.0, 0.01718491691724094, 0.0, 0.0, 0.0, 0.0, 0.0, 0.0, 0.01718491691724094, 0.0, 0.0, 0.0, 0.0, 0.0, 0.0, 0.01718492030487199, 5.491590797603089e-09, 8.837692761655723e-10, 0.0, 0.0, 0.0, 5.491590797603331e-09, 0.017184929476381332, -1.1418783055644569e-10, 0.0, 0.0, 0.0, 8.83769276166526e-10, -1.1418783055917e-10, 0.017184931451806433)"
1642435551.7511377,9938,1642435550,829403639,mocap,DragonFly17/base_link,-1.4111941825584011,-0.42324633372241655,1.0446274666958664,0.0005820271228648638,0.005958272619846735,-0.050689346978944776,0.9986965256446411,"(7.863188200795439e-07, 0.0, 0.0, 0.0, 0.0, 0.0, 0.0, 7.863188200795439e-07, 0.0, 0.0, 0.0, 0.0, 0.0, 0.0, 7.863188200795439e-07, 0.0, 0.0, 0.0, 0.0, 0.0, 0.0, 7.863188595865071e-07, 7.591899643751253e-14, 1.0826964983392301e-14, 0.0, 0.0, 0.0, 7.591899643751025e-14, 7.863190016717449e-07, -2.1339217067089625e-15, 0.0, 0.0, 0.0, 1.0826964983378108e-14, -2.1339217066995324e-15, 7.863190302722245e-07)",-0.001704546726384733,-0.023340098606581546,0.0057244812056561276,-0.14487854405854733,0.04619516083847577,0.001072442390599837,"(0.016981831616269854, 0.0, 0.0, 0.0, 0.0, 0.0, 0.0, 0.016981831616269854, 0.0, 0.0, 0.0, 0.0, 0.0, 0.0, 0.016981831616269854, 0.0, 0.0, 0.0, 0.0, 0.0, 0.0, 0.016981835008030605, 7.0514553589842065e-09, 2.3752680799263358e-09, 0.0, 0.0, 0.0, 7.051455358984358e-09, 0.0169818489979066, -9.396088290646628e-10, 0.0, 0.0, 0.0, 2.375268079926866e-09, -9.39608829063999e-10, 0.01698185152940424)"
1642435551.7512026,9939,1642435550,839454889,mocap,DragonFly17/base_link,-1.4111531466871183,-0.42334227285454107,1.0446551496602103,0.0011420659391771434,0.005535039945949989,-0.050505324121253074,0.9987078007373364,"(7.867357318994399e-07, 0.0, 0.0, 0.0, 0.0, 0.0, 0.0, 7.867357318994399e-07, 0.0, 0.0, 0.0, 0.0, 0.0, 0.0, 7.867357318994399e-07, 0.0, 0.0, 0.0, 0.0, 0.0, 0.0, 7.867357461361908e-07, 3.091193328865531e-14, 3.169881649755177e-15, 0.0, 0.0, 0.0, 3.0911933288658017e-14, 7.867358175625207e-07, -1.0631884833687328e-15, 0.0, 0.0, 0.0, 3.1698816497669325e-15, -1.0631884833781392e-15, 7.867358277890332e-07)",0.0017218035665530242,-0.015176743911271903,0.003966933372923868,0.004384725735867012,-0.034284735887734,0.02177330297444724,"(0.016909808354459974, 0.0, 0.0, 0.0, 0.0, 0.0, 0.0, 0.016909808354459974, 0.0, 0.0, 0.0, 0.0, 0.0, 0.0, 0.016909808354459974, 0.0, 0.0, 0.0, 0.0, 0.0, 0.0, 0.016909810108784513, 4.18161250833963e-09, 1.0971964600260548e-09, 0.0, 0.0, 0.0, 4.181612508339555e-09, 0.016909819449612146, -4.3556556107721627e-10, 0.0, 0.0, 0.0, 1.0971964600259497e-09, -4.355655610773995e-10, 0.016909820921558405)"
1642435551.7512167,9940,1642435550,849702835,mocap,DragonFly17/base_link,-1.4109928360780768,-0.4231825181875533,1.044632324580295,0.003995515246264881,0.004123592376499267,-0.05038900253207883,0.9987131621580163,"(7.896381281577077e-07, 0.0, 0.0, 0.0, 0.0, 0.0, 0.0, 7.896381281577077e-07, 0.0, 0.0, 0.0, 0.0, 0.0, 0.0, 7.896381281577077e-07, 0.0, 0.0, 0.0, 0.0, 0.0, 0.0, 7.896381464800218e-07, 2.620753906350822e-14, 4.904694958691845e-15, 0.0, 0.0, 0.0, 2.62075390635076e-14, 7.896381860858068e-07, 3.412887969603348e-16, 0.0, 0.0, 0.0, 4.904694958690103e-15, 3.41288796950039e-16, 7.896381991221627e-07)",0.010058577916861353,0.0032249163330162183,0.00026309981448895776,0.326513433126301,-0.19530965295935837,0.020414914738185044,"(0.016793175585439992, 0.0, 0.0, 0.0, 0.0, 0.0, 0.0, 0.016793175585439992, 0.0, 0.0, 0.0, 0.0, 0.0, 0.0, 0.016793175585439992, 0.0, 0.0, 0.0, 0.0, 0.0, 0.0, 0.016793176157841896, 1.0290593206146147e-09, 2.4918329837251385e-10, 0.0, 0.0, 0.0, 1.0290593206146378e-09, 0.016793178793686504, 2.0890415849613963e-12, 0.0, 0.0, 0.0, 2.491832983728323e-10, 2.089041585836967e-12, 0.01679317918612855)"
1642435551.7512846,9941,1642435550,860090017,mocap,DragonFly17/base_link,-1.4111600117867957,-0.423518387992444,1.0447397009997517,0.0018122344959282687,0.005130337735782888,-0.050944042517104556,0.9986866875916974,"(7.917895480390768e-07, 0.0, 0.0, 0.0, 0.0, 0.0, 0.0, 7.917895480390768e-07, 0.0, 0.0, 0.0, 0.0, 0.0, 0.0, 7.917895480390768e-07, 0.0, 0.0, 0.0, 0.0, 0.0, 0.0, 7.917896901078731e-07, 2.454358374541486e-13, -1.8724769464384518e-14, 0.0, 0.0, 0.0, 2.454358374541506e-13, 7.917899815007673e-07, 1.1359511828059222e-14, 0.0, 0.0, 0.0, -1.872476946438443e-14, 1.1359511827996422e-14, 7.917901207696725e-07)",-0.0056690995241054955,-0.018169501070766127,0.006325326342339441,-0.11659501316188836,0.051649150230625746,-0.054772272600652205,"(0.016688520788142727, 0.0, 0.0, 0.0, 0.0, 0.0, 0.0, 0.016688520788142727, 0.0, 0.0, 0.0, 0.0, 0.0, 0.0, 0.016688520788142727, 0.0, 0.0, 0.0, 0.0, 0.0, 0.0, 0.016688526132576403, 8.46059317579795e-09, -9.64223664847747e-10, 0.0, 0.0, 0.0, 8.46059317579761e-09, 0.01668853488900958, 6.511843100973126e-10, 0.0, 0.0, 0.0, -9.642236648457344e-10, 6.511843100964941e-10, 0.01668854001372518)"
1642435551.7513251,9942,1642435550,869451761,mocap,DragonFly17/base_link,-1.4111931930913169,-0.4237328312167542,1.0448171665742756,0.0009527120923387329,0.005386290311455432,-0.051086867248426496,0.9986792338939988,"(7.729437870947411e-07, 0.0, 0.0, 0.0, 0.0, 0.0, 0.0, 7.729437870947411e-07, 0.0, 0.0, 0.0, 0.0, 0.0, 0.0, 7.729437870947411e-07, 0.0, 0.0, 0.0, 0.0, 0.0, 0.0, 7.729438204710862e-07, 4.244187246607481e-14, -3.258657615519199e-14, 0.0, 0.0, 0.0, 4.244187246606813e-14, 7.729438891232077e-07, 1.636483302209754e-14, 0.0, 0.0, 0.0, -3.2586576155201265e-14, 1.6364833022122878e-14, 7.729438973704341e-07)",-0.004444077863503853,-0.0207143425499595,0.007379577605792028,-0.15183909245352922,0.05829590603205385,-0.040280191668595665,"(0.017259112592215277, 0.0, 0.0, 0.0, 0.0, 0.0, 0.0, 0.017259112592215277, 0.0, 0.0, 0.0, 0.0, 0.0, 0.0, 0.017259112592215277, 0.0, 0.0, 0.0, 0.0, 0.0, 0.0, 0.01725911637136003, 5.769316611720253e-09, -1.0186001256141578e-09, 0.0, 0.0, 0.0, 5.769316611720035e-09, 0.017259122769243938, 5.171791642236165e-10, 0.0, 0.0, 0.0, -1.0186001256129394e-09, 5.171791642222686e-10, 0.01725912587582731)"
1642435551.7513547,9943,1642435550,879346371,mocap,DragonFly17/base_link,-1.4111703104531073,-0.42389904903798764,1.04488647005538,0.0006903072549424877,0.005413602376791734,-0.05097415044866476,0.9986850616541983,"(7.830640501936632e-07, 0.0, 0.0, 0.0, 0.0, 0.0, 0.0, 7.830640501936632e-07, 0.0, 0.0, 0.0, 0.0, 0.0, 0.0, 7.830640501936632e-07, 0.0, 0.0, 0.0, 0.0, 0.0, 0.0, 7.830640848324369e-07, 6.013485781857036e-14, -2.0231562678125498e-14, 0.0, 0.0, 0.0, 6.013485781858034e-14, 7.830641797422314e-07, 8.758796184590493e-15, 0.0, 0.0, 0.0, -2.0231562678103612e-14, 8.75879618460025e-15, 7.830642060919237e-07)",-0.00044944146495368327,-0.018446302808463544,0.0071760535921146906,-0.09336511625217211,0.028764056741565108,-0.0027948829321476146,"(0.017109687195344576, 0.0, 0.0, 0.0, 0.0, 0.0, 0.0, 0.017109687195344576, 0.0, 0.0, 0.0, 0.0, 0.0, 0.0, 0.017109687195344576, 0.0, 0.0, 0.0, 0.0, 0.0, 0.0, 0.017109689018486723, 2.7613461281410478e-09, -1.4172415945854606e-09, 0.0, 0.0, 0.0, 2.761346128139857e-09, 0.01710969363209049, 5.816717771067507e-10, 0.0, 0.0, 0.0, -1.4172415945859363e-09, 5.816717771066734e-10, 0.01710969449891251)"
1642435551.7514033,9944,1642435550,889868259,mocap,DragonFly17/base_link,-1.4111242168653204,-0.4240199843599978,1.0449365627174267,0.000717958885357449,0.005074851892946456,-0.05086196964558674,0.9986925405033766,"(7.952660085610563e-07, 0.0, 0.0, 0.0, 0.0, 0.0, 0.0, 7.952660085610563e-07, 0.0, 0.0, 0.0, 0.0, 0.0, 0.0, 7.952660085610563e-07, 0.0, 0.0, 0.0, 0.0, 0.0, 0.0, 7.95266019797763e-07, 1.9700483709796193e-14, -2.445120659991218e-15, 0.0, 0.0, 0.0, 1.9700483709790245e-14, 7.952660537020526e-07, 1.3427657814274291e-15, 0.0, 0.0, 0.0, -2.445120659989066e-15, 1.3427657814360971e-15, 7.952660622448027e-07)",0.00250317131459072,-0.014265594387867335,0.00572672038034447,-0.035348069289396974,-0.028218220022184968,0.011958180407745647,"(0.016670912074573264, 0.0, 0.0, 0.0, 0.0, 0.0, 0.0, 0.016670912074573264, 0.0, 0.0, 0.0, 0.0, 0.0, 0.0, 0.016670912074573264, 0.0, 0.0, 0.0, 0.0, 0.0, 0.0, 0.016670912783103755, 1.3824940698557515e-09, -7.061341975247874e-10, 0.0, 0.0, 0.0, 1.382494069855434e-09, 0.016670916025723785, 2.702483824797574e-10, 0.0, 0.0, 0.0, -7.061341975247336e-10, 2.7024838248010357e-10, 0.016670916361262562)"
1642435551.7514606,9945,1642435550,899950027,mocap,DragonFly17/base_link,-1.4108605451666199,-0.42384192831035106,1.0448984034724054,0.003830950788712001,0.0032144608881858523,-0.05014673132703956,0.9987293409099786,"(7.866848196625915e-07, 0.0, 0.0, 0.0, 0.0, 0.0, 0.0, 7.866848196625915e-07, 0.0, 0.0, 0.0, 0.0, 0.0, 0.0, 7.866848196625915e-07, 0.0, 0.0, 0.0, 0.0, 0.0, 0.0, 7.866848290989135e-07, 4.877709394584994e-15, -3.3535917826808836e-15, 0.0, 0.0, 0.0, 4.877709394582639e-15, 7.866848400337758e-07, 3.41266688867015e-15, 0.0, 0.0, 0.0, -3.353591782680303e-15, 3.4126668886748644e-15, 7.866848453838668e-07)",0.01639329339775547,0.004523904080178609,0.00012570217891150204,0.3372590991470218,-0.24661862615955069,0.08652210007793006,"(0.016817399086375622, 0.0, 0.0, 0.0, 0.0, 0.0, 0.0, 0.016817399086375622, 0.0, 0.0, 0.0, 0.0, 0.0, 0.0, 0.016817399086375622, 0.0, 0.0, 0.0, 0.0, 0.0, 0.0, 0.016817399338387818, 2.587509653508927e-10, -8.116539265308005e-11, 0.0, 0.0, 0.0, 2.587509653507523e-10, 0.016817400649852, 8.492658157768251e-11, 0.0, 0.0, 0.0, -8.11653926529204e-11, 8.492658157739341e-11, 0.01681740081020468)"
1642435551.7514925,9946,1642435550,909396172,mocap,DragonFly17/base_link,-1.4107691867481709,-0.4238530936673017,1.0449330963008185,0.00478331815912902,0.0024614380671100296,-0.049828746054094895,0.9987432889670501,"(7.743185451121499e-07, 0.0, 0.0, 0.0, 0.0, 0.0, 0.0, 7.743185451121499e-07, 0.0, 0.0, 0.0, 0.0, 0.0, 0.0, 7.743185451121499e-07, 0.0, 0.0, 0.0, 0.0, 0.0, 0.0, 7.743187893033274e-07, 3.0926093714045136e-13, -1.0853937668037238e-13, 0.0, 0.0, 0.0, 3.0926093714044545e-13, 7.743190144293746e-07, 7.616953224206082e-14, 0.0, 0.0, 0.0, -1.0853937668041474e-13, 7.616953224198721e-14, 7.743192049695978e-07)",0.01251798745915562,0.0012721406109505802,0.0021352727377139734,0.25447921954476604,-0.20200702226583603,0.0745778787323014,"(0.017255622107139004, 0.0, 0.0, 0.0, 0.0, 0.0, 0.0, 0.017255622107139004, 0.0, 0.0, 0.0, 0.0, 0.0, 0.0, 0.017255622107139004, 0.0, 0.0, 0.0, 0.0, 0.0, 0.0, 0.01725562993253312, 9.056232129538025e-09, -3.170232435560659e-09, 0.0, 0.0, 0.0, 9.056232129537437e-09, 0.01725563529947315, 2.45189735660479e-09, 0.0, 0.0, 0.0, -3.1702324355621936e-09, 2.451897356603654e-09, 0.017255641393214345)"
1642435551.7515254,9947,1642435550,919778824,mocap,DragonFly17/base_link,-1.4107407765746622,-0.4239363542633025,1.0449720817111154,0.004993691010662947,0.0022876249581890275,-0.04973653032779719,0.9987472690190982,"(7.920984724774819e-07, 0.0, 0.0, 0.0, 0.0, 0.0, 0.0, 7.920984724774819e-07, 0.0, 0.0, 0.0, 0.0, 0.0, 0.0, 7.920984724774819e-07, 0.0, 0.0, 0.0, 0.0, 0.0, 0.0, 7.920985863584837e-07, 1.2412221932654052e-13, -4.6230665389234847e-14, 0.0, 0.0, 0.0, 1.241222193265226e-13, 7.920986440447501e-07, 3.7293501107597805e-14, 0.0, 0.0, 0.0, -4.6230665389199026e-14, 3.7293501107633424e-14, 7.92098730052824e-07)",0.006608038241637067,-0.004395880729372321,0.0031353324302681087,0.12408189437803482,-0.10138400442439721,0.04010645712317783,"(0.01681354846600447, 0.0, 0.0, 0.0, 0.0, 0.0, 0.0, 0.01681354846600447, 0.0, 0.0, 0.0, 0.0, 0.0, 0.0, 0.01681354846600447, 0.0, 0.0, 0.0, 0.0, 0.0, 0.0, 0.016813561192515383, 1.4573035756383771e-08, -5.254426316958679e-09, 0.0, 0.0, 0.0, 1.4573035756383295e-08, 0.01681356891951543, 4.064745201871491e-09, 0.0, 0.0, 0.0, -5.254426316958519e-09, 4.064745201870356e-09, 0.01681357870868047)"
1642435551.7515693,9948,1642435550,929724693,mocap,DragonFly17/base_link,-1.4107507306920728,-0.42405310711923144,1.0450121243050918,0.0048123292657486294,0.0022492878009706774,-0.0496953577752778,0.9987502959233743,"(7.848128478855835e-07, 0.0, 0.0, 0.0, 0.0, 0.0, 0.0, 7.848128478855835e-07, 0.0, 0.0, 0.0, 0.0, 0.0, 0.0, 7.848128478855835e-07, 0.0, 0.0, 0.0, 0.0, 0.0, 0.0, 7.848128992316107e-07, 5.735583148877012e-14, -2.136718922115065e-14, 0.0, 0.0, 0.0, 5.735583148875326e-14, 7.848129286742535e-07, 1.6853591118260034e-14, 0.0, 0.0, 0.0, -2.1367189221188945e-14, 1.6853591118226574e-14, 7.848129673176796e-07)",0.0021455304055913484,-0.008680247953162083,0.0036496804062531706,0.029760958118915257,-0.04537414709734631,0.021431011300041405,"(0.01692127925479686, 0.0, 0.0, 0.0, 0.0, 0.0, 0.0, 0.01692127925479686, 0.0, 0.0, 0.0, 0.0, 0.0, 0.0, 0.01692127925479686, 0.0, 0.0, 0.0, 0.0, 0.0, 0.0, 0.016921286923551174, 8.539974414381214e-09, -3.175146653102263e-09, 0.0, 0.0, 0.0, 8.539974414381752e-09, 0.016921291038614943, 2.506572033550045e-09, 0.0, 0.0, 0.0, -3.17514665310168e-09, 2.5065720335514504e-09, 0.01692129683912267)"
1642435551.7516334,9949,1642435550,940042734,mocap,DragonFly17/base_link,-1.4107627403864718,-0.4241642891744235,1.0450486134231671,0.004640766857295336,0.0022316358474818855,-0.04962793445465505,0.9987544999679345,"(7.905107057623929e-07, 0.0, 0.0, 0.0, 0.0, 0.0, 0.0, 7.905107057623929e-07, 0.0, 0.0, 0.0, 0.0, 0.0, 0.0, 7.905107057623929e-07, 0.0, 0.0, 0.0, 0.0, 0.0, 0.0, 7.90510747985157e-07, 4.50756739185801e-14, -1.642757375443547e-14, 0.0, 0.0, 0.0, 4.5075673918581254e-14, 7.905107688230303e-07, 1.3837985707893513e-14, 0.0, 0.0, 0.0, -1.642757375441732e-14, 1.3837985707904867e-14, 7.905108005421725e-07)",0.0001574644821297432,-0.009958662886397587,0.0035886929654038967,-0.008180433934541521,-0.019255230650167793,0.016481698783852212,"(0.016767121608797793, 0.0, 0.0, 0.0, 0.0, 0.0, 0.0, 0.016767121608797793, 0.0, 0.0, 0.0, 0.0, 0.0, 0.0, 0.016767121608797793, 0.0, 0.0, 0.0, 0.0, 0.0, 0.0, 0.01676712419649016, 2.5682027813866333e-09, -1.0065297562139811e-09, 0.0, 0.0, 0.0, 2.5682027813869245e-09, 0.01676712499001347, 8.860652255030931e-10, 0.0, 0.0, 0.0, -1.0065297562138215e-09, 8.860652255028044e-10, 0.016767126870697657)"
1642435551.7516587,9950,1642435550,949478626,mocap,DragonFly17/base_link,-1.4106527585680404,-0.42411767585943483,1.0450710475651477,0.00613590800172226,0.0014259141599729961,-0.04937740526014829,0.9987603262302681,"(7.747002786870651e-07, 0.0, 0.0, 0.0, 0.0, 0.0, 0.0, 7.747002786870651e-07, 0.0, 0.0, 0.0, 0.0, 0.0, 0.0, 7.747002786870651e-07, 0.0, 0.0, 0.0, 0.0, 0.0, 0.0, 7.747002990908257e-07, 2.0947839663350572e-14, -7.332609996695467e-15, 0.0, 0.0, 0.0, 2.0947839663356483e-14, 7.747003097882489e-07, 6.851507955497122e-15, 0.0, 0.0, 0.0, -7.332609996683669e-15, 6.851507955496829e-15, 7.747003242688484e-07)",0.006648852293100957,-0.001496008804585041,0.0028866454366278708,0.1704770689131271,-0.11358831799414701,0.036257571206492395,"(0.017229035310575944, 0.0, 0.0, 0.0, 0.0, 0.0, 0.0, 0.017229035310575944, 0.0, 0.0, 0.0, 0.0, 0.0, 0.0, 0.017229035310575944, 0.0, 0.0, 0.0, 0.0, 0.0, 0.0, 0.01722903600782128, 4.643094239816284e-10, -1.9403713646712604e-10, 0.0, 0.0, 0.0, 4.643094239814295e-10, 0.017229035929851387, 2.670378837046202e-10, 0.0, 0.0, 0.0, -1.940371364679193e-10, 2.6703788370449033e-10, 0.017229036359839234)"
1642435551.7516882,9951,1642435550,960055351,mocap,DragonFly17/base_link,-1.4105820907138462,-0.424178443452348,1.0451464169168707,0.006558323358967566,0.0011015255529800746,-0.0492562360623504,0.9987640353182324,"(7.952755122310073e-07, 0.0, 0.0, 0.0, 0.0, 0.0, 0.0, 7.952755122310073e-07, 0.0, 0.0, 0.0, 0.0, 0.0, 0.0, 7.952755122310073e-07, 0.0, 0.0, 0.0, 0.0, 0.0, 0.0, 7.952755642985444e-07, 7.125493620142187e-14, -2.2255627488940062e-14, 0.0, 0.0, 0.0, 7.125493620141772e-14, 7.952756255499718e-07, 1.4937014689014684e-14, 0.0, 0.0, 0.0, -2.2255627488922745e-14, 1.4937014689018988e-14, 7.952756680811836e-07)",0.006709934943203007,-0.004128882826789533,0.005521861582611613,0.11367398752881572,-0.08450989135190867,0.02793066809921617,"(0.01670159559260342, 0.0, 0.0, 0.0, 0.0, 0.0, 0.0, 0.01670159559260342, 0.0, 0.0, 0.0, 0.0, 0.0, 0.0, 0.01670159559260342, 0.0, 0.0, 0.0, 0.0, 0.0, 0.0, 0.01670159777554657, 2.7453280958529952e-09, -9.084128619665149e-10, 0.0, 0.0, 0.0, 2.745328095852778e-09, 0.016701599818925737, 6.660241183297336e-10, 0.0, 0.0, 0.0, -9.084128619681552e-10, 6.660241183287567e-10, 0.016701601530045886)"
1642435551.7517304,9952,1642435550,969821930,mocap,DragonFly17/base_link,-1.4105262923237583,-0.4242494231193694,1.0452221020606807,0.006953853773284527,0.000849265805884233,-0.04923816792838644,0.9987624970353866,"(7.814130739628333e-07, 0.0, 0.0, 0.0, 0.0, 0.0, 0.0, 7.814130739628333e-07, 0.0, 0.0, 0.0, 0.0, 0.0, 0.0, 7.814130739628333e-07, 0.0, 0.0, 0.0, 0.0, 0.0, 0.0, 7.814130949450769e-07, 2.4008802320809366e-14, -8.017599585322167e-15, 0.0, 0.0, 0.0, 2.4008802320814304e-14, 7.814131075868857e-07, 6.401167115426817e-15, 0.0, 0.0, 0.0, -8.017599585287608e-15, 6.401167115436703e-15, 7.814131240883802e-07)",0.0061082151426674666,-0.005918659221460088,0.00678128116333723,0.0928759214406138,-0.0675112847313861,0.013608512314809614,"(0.016995686534308666, 0.0, 0.0, 0.0, 0.0, 0.0, 0.0, 0.016995686534308666, 0.0, 0.0, 0.0, 0.0, 0.0, 0.0, 0.016995686534308666, 0.0, 0.0, 0.0, 0.0, 0.0, 0.0, 0.016995689079699595, 3.246246270411337e-09, -1.0611795071400623e-09, 0.0, 0.0, 0.0, 3.2462462704112727e-09, 0.016995691408480264, 7.55181071972635e-10, 0.0, 0.0, 0.0, -1.0611795071408555e-09, 7.551810719729286e-10, 0.016995693453238328)"
1642435551.751763,9953,1642435550,979175091,mocap,DragonFly17/base_link,-1.4105011864022352,-0.42431589202553716,1.0452766454129632,0.0072505405453551375,0.0006487022117877616,-0.049102464834703596,0.9987672185221196,"(7.727130744309436e-07, 0.0, 0.0, 0.0, 0.0, 0.0, 0.0, 7.727130744309436e-07, 0.0, 0.0, 0.0, 0.0, 0.0, 0.0, 7.727130744309436e-07, 0.0, 0.0, 0.0, 0.0, 0.0, 0.0, 7.727130923624985e-07, 2.3719703251223628e-14, -5.511576473647515e-15, 0.0, 0.0, 0.0, 2.3719703251222236e-14, 7.727131091330846e-07, 3.943629992943058e-15, 0.0, 0.0, 0.0, -5.511576473642188e-15, 3.94362999291634e-15, 7.727131249519413e-07)",0.004151265103450364,-0.006574054757619106,0.0062235675504765334,0.07469838051856437,-0.055230052437822884,0.022102784057213665,"(0.01736493166818885, 0.0, 0.0, 0.0, 0.0, 0.0, 0.0, 0.01736493166818885, 0.0, 0.0, 0.0, 0.0, 0.0, 0.0, 0.01736493166818885, 0.0, 0.0, 0.0, 0.0, 0.0, 0.0, 0.017364933470964225, 2.3064675945069643e-09, -6.50960784655225e-10, 0.0, 0.0, 0.0, 2.306467594506969e-09, 0.01736493500577615, 4.701199072601547e-10, 0.0, 0.0, 0.0, -6.50960784655383e-10, 4.701199072612954e-10, 0.017364936534203387)"
1642435551.7517755,9954,1642435550,989803553,mocap,DragonFly17/base_link,-1.4106154134906115,-0.4245625793148069,1.0453463307709447,0.005759702828486249,0.0013487715100828513,-0.04930469484818332,0.9987662658023059,"(7.968446308093456e-07, 0.0, 0.0, 0.0, 0.0, 0.0, 0.0, 7.968446308093456e-07, 0.0, 0.0, 0.0, 0.0, 0.0, 0.0, 7.968446308093456e-07, 0.0, 0.0, 0.0, 0.0, 0.0, 0.0, 7.968446463126889e-07, 1.8523161275979837e-14, -7.11655969659456e-15, 0.0, 0.0, 0.0, 1.8523161275979875e-14, 7.968446584438033e-07, 5.194904929889796e-15, 0.0, 0.0, 0.0, -7.116559696588164e-15, 5.194904929889777e-15, 7.968446698474145e-07)",-0.005072705390826885,-0.01695410601115689,0.006474979289455271,-0.14119614358581703,0.06911246614277206,-0.014394773157266838,"(0.01669098905596823, 0.0, 0.0, 0.0, 0.0, 0.0, 0.0, 0.01669098905596823, 0.0, 0.0, 0.0, 0.0, 0.0, 0.0, 0.01669098905596823, 0.0, 0.0, 0.0, 0.0, 0.0, 0.0, 0.016690990241296735, 1.4631880590833838e-09, -4.6009610139936594e-10, 0.0, 0.0, 0.0, 1.463188059083552e-09, 0.016690991164570478, 3.379192903163738e-10, 0.0, 0.0, 0.0, -4.6009610139888865e-10, 3.37919290317938e-10, 0.016690992125042013)"
1642435551.7518296,9955,1642435550,999912500,mocap,DragonFly17/base_link,-1.4109756005171554,-0.4250734482058338,1.0455112399079876,0.001757913726861642,0.0030998278353796785,-0.05090604067819296,0.9986970891262293,"(7.877368801186579e-07, 0.0, 0.0, 0.0, 0.0, 0.0, 0.0, 7.877368801186579e-07, 0.0, 0.0, 0.0, 0.0, 0.0, 0.0, 7.877368801186579e-07, 0.0, 0.0, 0.0, 0.0, 0.0, 0.0, 7.877369088354088e-07, 5.0768984759493666e-14, -1.1750413225587008e-14, 0.0, 0.0, 0.0, 5.076898475949446e-14, 7.877369776125669e-07, 6.350586452493633e-15, 0.0, 0.0, 0.0, -1.175041322557768e-14, 6.350586452488988e-15, 7.877370033296111e-07)",-0.023036926912822032,-0.036669977091507225,0.012247431789692526,-0.5132053114563295,0.25575147076471944,-0.19064002392155516,"(0.01679144185085927, 0.0, 0.0, 0.0, 0.0, 0.0, 0.0, 0.01679144185085927, 0.0, 0.0, 0.0, 0.0, 0.0, 0.0, 0.01679144185085927, 0.0, 0.0, 0.0, 0.0, 0.0, 0.0, 0.016791442723354547, 1.4574284482558563e-09, -3.51619829317511e-10, 0.0, 0.0, 0.0, 1.4574284482560478e-09, 0.016791444657284042, 2.1018183817152482e-10, 0.0, 0.0, 0.0, -3.516198293170337e-10, 2.1018183817351254e-10, 0.01679144540559458)"
1642435551.7547312,9956,1642435551,9833336,mocap,DragonFly17/base_link,-1.410863886324311,-0.42508231312370975,1.0455189227549955,0.0025442796475283317,0.0027049085846092415,-0.049935147133651325,0.9987455587843073,"(7.830617043943168e-07, 0.0, 0.0, 0.0, 0.0, 0.0, 0.0, 7.830617043943168e-07, 0.0, 0.0, 0.0, 0.0, 0.0, 0.0, 7.830617043943168e-07, 0.0, 0.0, 0.0, 0.0, 0.0, 0.0, 7.830620659172323e-07, 4.573627414151662e-13, -3.4696467528033955e-13, 0.0, 0.0, 0.0, 4.573627414151211e-13, 7.830627487626329e-07, 1.7376889235229665e-13, 0.0, 0.0, 0.0, -3.4696467528035934e-13, 1.7376889235225807e-13, 7.83062846362991e-07)",-0.0029458261286105097,-0.015695607775764956,0.005520578640971517,-0.12162888210820721,0.054682885648084156,0.03539548272439566,"(0.016967023596457347, 0.0, 0.0, 0.0, 0.0, 0.0, 0.0, 0.016967023596457347, 0.0, 0.0, 0.0, 0.0, 0.0, 0.0, 0.016967023596457347, 0.0, 0.0, 0.0, 0.0, 0.0, 0.0, 0.01696703680545516, 1.7571924294262706e-08, -1.242420800092675e-08, 0.0, 0.0, 0.0, 1.757192429426407e-08, 0.016967063422270882, 6.178517138151249e-09, 0.0, 0.0, 0.0, -1.2424208000927967e-08, 6.178517138151543e-09, 0.0169670676930586)"
1642435551.754786,9957,1642435551,19672871,mocap,DragonFly17/base_link,-1.4105764319098926,-0.42476074774381944,1.0454967345506323,0.006359532153573655,0.0008288240133803575,-0.049169494457045194,0.9987698584841228,"(7.820740395663735e-07, 0.0, 0.0, 0.0, 0.0, 0.0, 0.0, 7.820740395663735e-07, 0.0, 0.0, 0.0, 0.0, 0.0, 0.0, 7.820740395663735e-07, 0.0, 0.0, 0.0, 0.0, 0.0, 0.0, 7.820740518806215e-07, 3.1303856403177882e-15, 1.5142395357301197e-14, 0.0, 0.0, 0.0, 3.1303856403263825e-15, 7.820740591455277e-07, -6.281901096859057e-15, 0.0, 0.0, 0.0, 1.514239535730124e-14, -6.281901096849259e-15, 7.820740492702041e-07)",0.015863255087744794,0.012604843326926886,0.0009699707960756062,0.3917050069700121,-0.22278606692544956,0.10396822957285683,"(0.017052893317195075, 0.0, 0.0, 0.0, 0.0, 0.0, 0.0, 0.017052893317195075, 0.0, 0.0, 0.0, 0.0, 0.0, 0.0, 0.017052893317195075, 0.0, 0.0, 0.0, 0.0, 0.0, 0.0, 0.017052902470653518, 1.2688894521974751e-08, -7.574566399278067e-09, 0.0, 0.0, 0.0, 1.2688894521974807e-08, 0.017052921955898102, 3.782616165518432e-09, 0.0, 0.0, 0.0, -7.574566399277591e-09, 3.782616165517031e-09, 0.017052925319299427)"
1642435551.7548182,9958,1642435551,29671192,mocap,DragonFly17/base_link,-1.4105564486291884,-0.4248446694900728,1.0455520088515358,0.006318695366205986,0.00079812596310052,-0.04901334746768115,0.9987778175619649,"(7.853997484972457e-07, 0.0, 0.0, 0.0, 0.0, 0.0, 0.0, 7.853997484972457e-07, 0.0, 0.0, 0.0, 0.0, 0.0, 0.0, 7.853997484972457e-07, 0.0, 0.0, 0.0, 0.0, 0.0, 0.0, 7.854000378313082e-07, 4.235770076452943e-13, -2.0450636692700604e-13, 0.0, 0.0, 0.0, 4.23577007645302e-13, 7.854005728648149e-07, 1.1192674717279259e-13, 0.0, 0.0, 0.0, -2.045063669269489e-13, 1.1192674717272605e-13, 7.854007511722365e-07)",0.007668210551293497,0.00018310621522748573,0.00366977011885923,0.15509837162490753,-0.09464505817282284,0.06098005032310365,"(0.016972833314672947, 0.0, 0.0, 0.0, 0.0, 0.0, 0.0, 0.016972833314672947, 0.0, 0.0, 0.0, 0.0, 0.0, 0.0, 0.016972833314672947, 0.0, 0.0, 0.0, 0.0, 0.0, 0.0, 0.01697284223559642, 1.242114177102548e-08, -6.0788877137678456e-09, 0.0, 0.0, 0.0, 1.2421141771025671e-08, 0.016972857869379757, 3.4007669565192547e-09, 0.0, 0.0, 0.0, -6.07888771376991e-09, 3.4007669565187013e-09, 0.01697286272388083)"
1642435551.754848,9959,1642435551,40107012,mocap,DragonFly17/base_link,-1.4105671798467943,-0.42495032835448454,1.0456110740494255,0.005982783840084207,0.0008934751308572883,-0.04897103845924271,0.9987818807887686,"(7.931475377532427e-07, 0.0, 0.0, 0.0, 0.0, 0.0, 0.0, 7.931475377532427e-07, 0.0, 0.0, 0.0, 0.0, 0.0, 0.0, 7.931475377532427e-07, 0.0, 0.0, 0.0, 0.0, 0.0, 0.0, 7.931475821349688e-07, 5.3074619793651155e-14, -3.431567608228599e-14, 0.0, 0.0, 0.0, 5.307461979363789e-14, 7.931476498004473e-07, 1.9462637044318684e-14, 0.0, 0.0, 0.0, -3.4315676082308025e-14, 1.946263704432748e-14, 7.931476643388677e-07)",0.0024133860365912916,-0.00606874044097811,0.004886549157173972,0.022962727034171987,-0.024556974556606395,0.029175689602777055,"(0.01669856890852188, 0.0, 0.0, 0.0, 0.0, 0.0, 0.0, 0.01669856890852188, 0.0, 0.0, 0.0, 0.0, 0.0, 0.0, 0.01669856890852188, 0.0, 0.0, 0.0, 0.0, 0.0, 0.0, 0.016698575998233794, 9.530926206376508e-09, -4.884450466625521e-09, 0.0, 0.0, 0.0, 9.530926206375945e-09, 0.01669858697574997, 2.85031844987976e-09, 0.0, 0.0, 0.0, -4.884450466625892e-09, 2.8503184498758183e-09, 0.016698590920593906)"
1642435551.7548828,9960,1642435551,49862146,mocap,DragonFly17/base_link,-1.4105798846193072,-0.42504983963694415,1.0456729229373447,0.0055585035280537026,0.0010104405778976206,-0.04888953135781391,0.9987882136729458,"(7.806193680678825e-07, 0.0, 0.0, 0.0, 0.0, 0.0, 0.0, 7.806193680678825e-07, 0.0, 0.0, 0.0, 0.0, 0.0, 0.0, 7.806193680678825e-07, 0.0, 0.0, 0.0, 0.0, 0.0, 0.0, 7.80619399775388e-07, 4.2252091685777755e-14, -1.987918518960975e-14, 0.0, 0.0, 0.0, 4.225209168577033e-14, 7.806194514045273e-07, 1.2004619102264994e-14, 0.0, 0.0, 0.0, -1.9879185189609712e-14, 1.200461910224261e-14, 7.806194678352036e-07)",0.0002645047127067617,-0.008425613135470559,0.005705312163239294,-0.03970506732161197,0.0058514107488151085,0.02203341411992945,"(0.017018509212555426, 0.0, 0.0, 0.0, 0.0, 0.0, 0.0, 0.017018509212555426, 0.0, 0.0, 0.0, 0.0, 0.0, 0.0, 0.017018509212555426, 0.0, 0.0, 0.0, 0.0, 0.0, 0.0, 0.017018511897703932, 3.23599059519343e-09, -1.8595956218457191e-09, 0.0, 0.0, 0.0, 3.235990595193512e-09, 0.01701851533711634, 1.152223286098852e-09, 0.0, 0.0, 0.0, -1.8595956218460897e-09, 1.152223286097875e-09, 0.017018516566435687)"
1642435551.754893,9961,1642435551,59263706,mocap,DragonFly17/base_link,-1.4106112521154788,-0.42514810098597516,1.0457126748347256,0.005024605259645356,0.001350247038062983,-0.0488440750058854,0.998792864668022,"(7.736814420185332e-07, 0.0, 0.0, 0.0, 0.0, 0.0, 0.0, 7.736814420185332e-07, 0.0, 0.0, 0.0, 0.0, 0.0, 0.0, 7.736814420185332e-07, 0.0, 0.0, 0.0, 0.0, 0.0, 0.0, 7.736814634891422e-07, 2.874264558541286e-14, -1.1104191130144443e-14, 0.0, 0.0, 0.0, 2.874264558541546e-14, 7.736815015338092e-07, 7.422157516951234e-15, 0.0, 0.0, 0.0, -1.1104191130144418e-14, 7.422157516930742e-15, 7.736815121304981e-07)",-0.0017840363070725862,-0.009556605774157081,0.00485091973796424,-0.07953311540619545,0.04668778307294738,0.015252285087959283,"(0.01734052854676129, 0.0, 0.0, 0.0, 0.0, 0.0, 0.0, 0.01734052854676129, 0.0, 0.0, 0.0, 0.0, 0.0, 0.0, 0.01734052854676129, 0.0, 0.0, 0.0, 0.0, 0.0, 0.0, 0.01734052917444398, 5.500780305509701e-10, -2.672459726689209e-10, 0.0, 0.0, 0.0, 5.50078030550987e-10, 0.017340529805980984, 2.4798533663836075e-10, 0.0, 0.0, 0.0, -2.672459726690268e-10, 2.479853366384956e-10, 0.01734052989023744)"
1642435551.7549114,9962,1642435551,69632769,mocap,DragonFly17/base_link,-1.4106428830609343,-0.4252406457610863,1.0457545555562793,0.00450331633667299,0.0015702338859431384,-0.048706634360902556,0.9988017412263367,"(7.923927719832644e-07, 0.0, 0.0, 0.0, 0.0, 0.0, 0.0, 7.923927719832644e-07, 0.0, 0.0, 0.0, 0.0, 0.0, 0.0, 7.923927719832644e-07, 0.0, 0.0, 0.0, 0.0, 0.0, 0.0, 7.92392786428163e-07, 1.9705962891762872e-14, -1.2139504738785725e-15, 0.0, 0.0, 0.0, 1.970596289176392e-14, 7.923928060960599e-07, 8.20661947934859e-16, 0.0, 0.0, 0.0, -1.2139504738763472e-15, 8.206619479370848e-16, 7.923928160978997e-07)",-0.0025679214048869256,-0.009222808908090708,0.004381143675481134,-0.09145249006825623,0.047231721454876315,0.02246534435440186,"(0.016830568282964392, 0.0, 0.0, 0.0, 0.0, 0.0, 0.0, 0.016830568282964392, 0.0, 0.0, 0.0, 0.0, 0.0, 0.0, 0.016830568282964392, 0.0, 0.0, 0.0, 0.0, 0.0, 0.0, 0.016830568688933643, 5.316709231086547e-10, 2.387388007102098e-10, 0.0, 0.0, 0.0, 5.316709231084981e-10, 0.01683056940888413, -9.889471681517327e-11, 0.0, 0.0, 0.0, 2.387388007101039e-10, -9.889471681419141e-11, 0.01683056960011973)"
1642435551.7549279,9963,1642435551,79222202,mocap,DragonFly17/base_link,-1.4106929579826153,-0.4253155940323729,1.0457787328514059,0.0042403806687602765,0.0017860382707506463,-0.04863195575342175,0.9988061684424512,"(7.784985738518706e-07, 0.0, 0.0, 0.0, 0.0, 0.0, 0.0, 7.784985738518706e-07, 0.0, 0.0, 0.0, 0.0, 0.0, 0.0, 7.784985738518706e-07, 0.0, 0.0, 0.0, 0.0, 0.0, 0.0, 7.784985826015688e-07, 1.2902876751749525e-14, 5.577127521822366e-15, 0.0, 0.0, 0.0, 1.2902876751754603e-14, 7.784986012204261e-07, -2.5765722205329185e-15, 0.0, 0.0, 0.0, 5.577127521814746e-15, -2.576572220522772e-15, 7.784986058906693e-07)",-0.004072719168783751,-0.008381668286841913,0.00330128437316376,-0.06887372348718321,0.04722374539598349,0.01861137935569809,"(0.017130726146843765, 0.0, 0.0, 0.0, 0.0, 0.0, 0.0, 0.017130726146843765, 0.0, 0.0, 0.0, 0.0, 0.0, 0.0, 0.017130726146843765, 0.0, 0.0, 0.0, 0.0, 0.0, 0.0, 0.017130726756592773, 9.391582361065263e-10, 4.178956324501902e-10, 0.0, 0.0, 0.0, 9.39158236105782e-10, 0.017130728019433872, -2.1732335892304962e-10, 0.0, 0.0, 0.0, 4.178956324507196e-10, -2.1732335892164424e-10, 0.017130728418943336)"
1642435551.7549407,9964,1642435551,89897156,mocap,DragonFly17/base_link,-1.4107389369122474,-0.42537042872396275,1.0458137085678745,0.004219816717382267,0.0018058292744821407,-0.048692699601843234,0.998803260473754,"(7.96906185505515e-07, 0.0, 0.0, 0.0, 0.0, 0.0, 0.0, 7.96906185505515e-07, 0.0, 0.0, 0.0, 0.0, 0.0, 0.0, 7.96906185505515e-07, 0.0, 0.0, 0.0, 0.0, 0.0, 0.0, 7.969061933647711e-07, 9.706199654640507e-15, 3.78219021290284e-15, 0.0, 0.0, 0.0, 9.706199654640471e-15, 7.969062008211476e-07, -2.5487621448808745e-15, 0.0, 0.0, 0.0, 3.782190212894317e-15, -2.5487621448766194e-15, 7.969062064964597e-07)",-0.00424181167210466,-0.00642286133663122,0.00330534911989615,-0.028939432519669205,0.020710552983329314,0.00016562410061381205,"(0.01662108677037805, 0.0, 0.0, 0.0, 0.0, 0.0, 0.0, 0.01662108677037805, 0.0, 0.0, 0.0, 0.0, 0.0, 0.0, 0.01662108677037805, 0.0, 0.0, 0.0, 0.0, 0.0, 0.0, 0.016621087476664857, 9.853089852618365e-10, 4.1289182642270017e-10, 0.0, 0.0, 0.0, 9.853089852617072e-10, 0.01662108851818781, -2.490482732683168e-10, 0.0, 0.0, 0.0, 4.128918264230178e-10, -2.490482732664879e-10, 0.016621089011085083)"
1642435551.7549686,9965,1642435551,99925518,mocap,DragonFly17/base_link,-1.4108587665670695,-0.4254944096371382,1.0458832042089605,0.003911357447220426,0.0018258005068929463,-0.04963843030041738,0.9987579256119842,"(7.857898267923387e-07, 0.0, 0.0, 0.0, 0.0, 0.0, 0.0, 7.857898267923387e-07, 0.0, 0.0, 0.0, 0.0, 0.0, 0.0, 7.857898267923387e-07, 0.0, 0.0, 0.0, 0.0, 0.0, 0.0, 7.857898294801651e-07, 3.951120473471633e-15, 1.1784563681826503e-15, 0.0, 0.0, 0.0, 3.951120473470299e-15, 7.857898340602817e-07, -5.803195910945674e-16, 0.0, 0.0, 0.0, 1.1784563681873922e-15, -5.803195910850798e-16, 7.857898360120387e-07)",-0.008732844174326022,-0.009874195158751254,0.0054132259435572955,-0.0479275466657973,0.013063024427256148,-0.11021053855788825,"(0.016830597459294383, 0.0, 0.0, 0.0, 0.0, 0.0, 0.0, 0.016830597459294383, 0.0, 0.0, 0.0, 0.0, 0.0, 0.0, 0.016830597459294383, 0.0, 0.0, 0.0, 0.0, 0.0, 0.0, 0.016830597836923082, 5.094707390404161e-10, 1.6638377344020285e-10, 0.0, 0.0, 0.0, 5.094707390403779e-10, 0.01683059828014564, -1.0771283729863374e-10, 0.0, 0.0, 0.0, 1.6638377343988521e-10, -1.0771283729828716e-10, 0.01683059857484163)"
1642435551.7549949,9966,1642435551,109940529,mocap,DragonFly17/base_link,-1.4109017895850942,-0.4255540505309743,1.045956182050171,0.003994441610068958,0.0018043392454273925,-0.049910355186417635,0.9987440839580931,"(7.846746382542926e-07, 0.0, 0.0, 0.0, 0.0, 0.0, 0.0, 7.846746382542926e-07, 0.0, 0.0, 0.0, 0.0, 0.0, 0.0, 7.846746382542926e-07, 0.0, 0.0, 0.0, 0.0, 0.0, 0.0, 7.84674685682157e-07, 4.2890521194488696e-15, -1.574373872955707e-14, 0.0, 0.0, 0.0, 4.289052119424872e-15, 7.846746947079673e-07, 2.835590357160917e-15, 0.0, 0.0, 0.0, -1.574373872955886e-14, 2.835590357151326e-15, 7.846746515245852e-07)",-0.00611407586320947,-0.00756025174932104,0.00651538196625385,-0.010073634897550567,0.002460188737513932,-0.07728250466764242,"(0.016926228080654707, 0.0, 0.0, 0.0, 0.0, 0.0, 0.0, 0.016926228080654707, 0.0, 0.0, 0.0, 0.0, 0.0, 0.0, 0.016926228080654707, 0.0, 0.0, 0.0, 0.0, 0.0, 0.0, 0.01692622968505246, 2.367014672422865e-10, -6.964794793618411e-10, 0.0, 0.0, 0.0, 2.3670146724210555e-10, 0.016926230099592477, 2.1123576811407676e-10, 0.0, 0.0, 0.0, -6.964794793620529e-10, 2.1123576811442335e-10, 0.016926228737648506)"
1642435551.7551112,9967,1642435551,119931936,mocap,DragonFly17/base_link,-1.41090608099661,-0.4255956945211862,1.0460436693272013,0.0040468807358286,0.0018522388884780708,-0.04986885636165816,0.9987458581303874,"(7.84877092781752e-07, 0.0, 0.0, 0.0, 0.0, 0.0, 0.0, 7.84877092781752e-07, 0.0, 0.0, 0.0, 0.0, 0.0, 0.0, 7.84877092781752e-07, 0.0, 0.0, 0.0, 0.0, 0.0, 0.0, 7.848771077790586e-07, 1.270044150884497e-15, -1.5940618705780782e-16, 0.0, 0.0, 0.0, 1.2700441509179936e-15, 7.848771088404896e-07, -2.265219168349105e-16, 0.0, 0.0, 0.0, -1.5940618705780802e-16, -2.265219168271346e-16, 7.848770955370279e-07)",-0.002760630863641766,-0.005558385632266123,0.007835735051128667,0.002345313279403443,0.006324844156722811,-0.026779125448308107,"(0.016949912318956727, 0.0, 0.0, 0.0, 0.0, 0.0, 0.0, 0.016949912318956727, 0.0, 0.0, 0.0, 0.0, 0.0, 0.0, 0.016949912318956727, 0.0, 0.0, 0.0, 0.0, 0.0, 0.0, 0.016949914299547335, 8.059925369759965e-11, -6.170716931243618e-10, 0.0, 0.0, 0.0, 8.059925369733167e-11, 0.01694991452038982, 1.7639473684652495e-10, 0.0, 0.0, 0.0, -6.170716931244412e-10, 1.7639473684665978e-10, 0.016949912598628308)"
1642435551.7551339,9968,1642435551,130058289,mocap,DragonFly17/base_link,-1.4109263580143376,-0.4256285854648508,1.0461085773144576,0.004048684222509013,0.0018795586469683258,-0.04982259553694196,0.9987481085786017,"(7.874791644304448e-07, 0.0, 0.0, 0.0, 0.0, 0.0, 0.0, 7.874791644304448e-07, 0.0, 0.0, 0.0, 0.0, 0.0, 0.0, 7.874791644304448e-07, 0.0, 0.0, 0.0, 0.0, 0.0, 0.0, 7.874791712281022e-07, 5.087979083393122e-16, -2.3924767086658173e-15, 0.0, 0.0, 0.0, 5.087979083416455e-16, 7.874791725208138e-07, 1.0728587846762247e-15, 0.0, 0.0, 0.0, -2.3924767086658047e-15, 1.0728587846792902e-15, 7.874791664960525e-07)",-0.0023115957439258316,-0.004187946386087896,0.006993343648789194,0.0013332604849899266,0.005739942932955487,-0.00540906264057401,"(0.01687395545212115, 0.0, 0.0, 0.0, 0.0, 0.0, 0.0, 0.01687395545212115, 0.0, 0.0, 0.0, 0.0, 0.0, 0.0, 0.01687395545212115, 0.0, 0.0, 0.0, 0.0, 0.0, 0.0, 0.01687395637539896, 1.49276718952731e-11, -1.715139912008534e-10, 0.0, 0.0, 0.0, 1.4927671895411058e-11, 0.01687395641794221, 7.975230729275533e-11, 0.0, 0.0, 0.0, -1.7151399120082694e-10, 7.975230729271149e-11, 0.016873955515801342)"
1642435551.7551742,9969,1642435551,140038967,mocap,DragonFly17/base_link,-1.4109699452860864,-0.42565603760304127,1.0461685958205253,0.003916909432456862,0.0019860335352769516,-0.04964086561957792,0.9987574770442758,"(7.848436362867084e-07, 0.0, 0.0, 0.0, 0.0, 0.0, 0.0, 7.848436362867084e-07, 0.0, 0.0, 0.0, 0.0, 0.0, 0.0, 7.848436362867084e-07, 0.0, 0.0, 0.0, 0.0, 0.0, 0.0, 7.848436421426103e-07, 1.4937519782787623e-16, -1.5949550947685603e-15, 0.0, 0.0, 0.0, 1.4937519782667953e-16, 7.8484364258369e-07, 4.451539572582002e-16, 0.0, 0.0, 0.0, -1.5949550947685627e-15, 4.451539572584238e-16, 7.848436370093574e-07)",-0.0035185031232400563,-0.0033394306125005316,0.0064116746174043525,-0.014297057366838329,0.015576259395982341,0.019298375864833937,"(0.016936422111705072, 0.0, 0.0, 0.0, 0.0, 0.0, 0.0, 0.016936422111705072, 0.0, 0.0, 0.0, 0.0, 0.0, 0.0, 0.016936422111705072, 0.0, 0.0, 0.0, 0.0, 0.0, 0.0, 0.016936422333631573, -1.579191536166874e-13, -1.553726864044612e-11, 0.0, 0.0, 0.0, -1.5791915351280191e-13, 0.01693642232993731, 2.98485632226556e-11, 0.0, 0.0, 0.0, -1.553726864047259e-11, 2.984856322264154e-11, 0.016936422126741214)"
1642435551.7552109,9970,1642435551,149721146,mocap,DragonFly17/base_link,-1.4110065938514784,-0.42567687909923635,1.0462127885289252,0.003825818271699613,0.00202164801976541,-0.04960762948105642,0.9987594100438402,"(7.793008318100975e-07, 0.0, 0.0, 0.0, 0.0, 0.0, 0.0, 7.793008318100975e-07, 0.0, 0.0, 0.0, 0.0, 0.0, 0.0, 7.793008318100975e-07, 0.0, 0.0, 0.0, 0.0, 0.0, 0.0, 7.793008364240937e-07, 7.857083283365531e-16, 7.738964646273094e-16, 0.0, 0.0, 0.0, 7.857083283371814e-16, 7.793008364692709e-07, -9.193342935862346e-16, 0.0, 0.0, 0.0, 7.738964646317172e-16, -9.193342935881286e-16, 7.793008334596303e-07)",-0.0036660565186449044,-0.002647363683499361,0.005332228394066317,-0.01665075575430561,0.011314915200891024,0.012123285625158891,"(0.017134066892804348, 0.0, 0.0, 0.0, 0.0, 0.0, 0.0, 0.017134066892804348, 0.0, 0.0, 0.0, 0.0, 0.0, 0.0, 0.017134066892804348, 0.0, 0.0, 0.0, 0.0, 0.0, 0.0, 0.017134066987604238, 2.6424752113556435e-11, 3.0039656163304054e-11, 0.0, 0.0, 0.0, 2.6424752113461024e-11, 0.017134066976027137, -2.6421072490374894e-11, 0.0, 0.0, 0.0, 3.0039656163277584e-11, -2.6421072490230137e-11, 0.01713406695203894)"
1642435551.755249,9971,1642435551,159645081,mocap,DragonFly17/base_link,-1.4110633448126957,-0.4256952237478898,1.0462562366109927,0.003628290760654506,0.0021044581219108217,-0.04949454379691814,0.9987655865599885,"(7.840524876064912e-07, 0.0, 0.0, 0.0, 0.0, 0.0, 0.0, 7.840524876064912e-07, 0.0, 0.0, 0.0, 0.0, 0.0, 0.0, 7.840524876064912e-07, 0.0, 0.0, 0.0, 0.0, 0.0, 0.0, 7.840524886611103e-07, 4.681101105142052e-16, 4.990564386644696e-16, 0.0, 0.0, 0.0, 4.681101105190272e-16, 7.840524891279164e-07, -2.374971860851421e-16, 0.0, 0.0, 0.0, 4.990564386644693e-16, -2.3749718608875844e-16, 7.840524887031335e-07)",-0.004883525090001148,-0.0021786607465007976,0.0047751505275297635,-0.029812635043855618,0.015605953113784213,0.01854753325149579,"(0.01704135833069838, 0.0, 0.0, 0.0, 0.0, 0.0, 0.0, 0.01704135833069838, 0.0, 0.0, 0.0, 0.0, 0.0, 0.0, 0.01704135833069838, 0.0, 0.0, 0.0, 0.0, 0.0, 0.0, 0.017041358423796667, 4.679570697257749e-11, 5.1398156374613084e-11, 0.0, 0.0, 0.0, 4.6795706972536194e-11, 0.01704135843874867, -4.436624833074163e-11, 0.0, 0.0, 0.0, 5.1398156374586614e-11, -4.4366248330385116e-11, 0.017041358428630304)"
1642435551.755277,9972,1642435551,169743538,mocap,DragonFly17/base_link,-1.41110438344985,-0.42570525252230296,1.046295577126603,0.003576804826356503,0.0021314627974442987,-0.04938393025691013,0.998771190396465,"(7.875178729776381e-07, 0.0, 0.0, 0.0, 0.0, 0.0, 0.0, 7.875178729776381e-07, 0.0, 0.0, 0.0, 0.0, 0.0, 0.0, 7.875178729776381e-07, 0.0, 0.0, 0.0, 0.0, 0.0, 0.0, 7.87517874943345e-07, 1.4469186185135201e-15, 1.7454216336579373e-15, 0.0, 0.0, 0.0, 1.4469186185146876e-15, 7.875178769142386e-07, -9.338297606337575e-16, 0.0, 0.0, 0.0, 1.7454216336602755e-15, -9.338297606267524e-16, 7.875178765503225e-07)",-0.004401275036655722,-0.0014755278282303423,0.004257194127986159,-0.0179805447392008,0.00976847843812393,0.02060920793488708,"(0.016902167847196118, 0.0, 0.0, 0.0, 0.0, 0.0, 0.0, 0.016902167847196118, 0.0, 0.0, 0.0, 0.0, 0.0, 0.0, 0.016902167847196118, 0.0, 0.0, 0.0, 0.0, 0.0, 0.0, 0.01690216797139562, 8.915128610237959e-11, 1.0283527526000372e-10, 0.0, 0.0, 0.0, 8.915128610229407e-11, 0.016902168073482514, -6.089561325670701e-11, 0.0, 0.0, 0.0, 1.0283527525997725e-10, -6.089561325687989e-11, 0.016902168054868327)"
1642435551.7569923,9973,1642435551,180008888,mocap,DragonFly17/base_link,-1.4111350602191512,-0.4257130265055656,1.0463651992998189,0.003480884265397809,0.0019293982668480778,-0.04916966543587405,0.9987825112946246,"(7.900656385144546e-07, 0.0, 0.0, 0.0, 0.0, 0.0, 0.0, 7.900656385144546e-07, 0.0, 0.0, 0.0, 0.0, 0.0, 0.0, 7.900656385144546e-07, 0.0, 0.0, 0.0, 0.0, 0.0, 0.0, 7.900656401464598e-07, 5.142294253677294e-16, 1.047008161341237e-15, 0.0, 0.0, 0.0, 5.142294253711491e-16, 7.900656406881662e-07, -6.126873898433261e-16, 0.0, 0.0, 0.0, 1.0470081613412418e-15, -6.126873898410459e-16, 7.900656396979065e-07)",-0.0035596974024180907,-0.001046897426718753,0.005774375046478281,-0.01952058703542944,-0.019163698124348327,0.03327089859719626,"(0.01677753610875957, 0.0, 0.0, 0.0, 0.0, 0.0, 0.0, 0.01677753610875957, 0.0, 0.0, 0.0, 0.0, 0.0, 0.0, 0.01677753610875957, 0.0, 0.0, 0.0, 0.0, 0.0, 0.0, 0.016777536249660267, 7.483007517778108e-11, 1.1351400991310202e-10, 0.0, 0.0, 0.0, 7.483007517788336e-11, 0.016777536346947286, -6.181480845973628e-11, 0.0, 0.0, 0.0, 1.1351400991291673e-10, -6.181480845990916e-11, 0.016777536287529538)"
1642435551.7570162,9974,1642435551,189639568,mocap,DragonFly17/base_link,-1.4111719238939568,-0.42571464701784456,1.0464268229029174,0.0034489443792927693,0.0019116088004671112,-0.04909342738833189,0.9987864065563483,"(7.782629712319723e-07, 0.0, 0.0, 0.0, 0.0, 0.0, 0.0, 7.782629712319723e-07, 0.0, 0.0, 0.0, 0.0, 0.0, 0.0, 7.782629712319723e-07, 0.0, 0.0, 0.0, 0.0, 0.0, 0.0, 7.782629765199124e-07, -9.538924252598289e-16, 2.135513363053945e-15, 0.0, 0.0, 0.0, -9.538924252572895e-16, 7.782629762595928e-07, 2.1005474355943454e-15, 0.0, 0.0, 0.0, 2.135513363053948e-15, 2.100547435595614e-15, 7.782629744911252e-07)",-0.0037001593228034165,-0.000539872744819479,0.006110755109762146,-0.012152824980183344,-0.010077037338426157,0.023173295426374335,"(0.01711815039179121, 0.0, 0.0, 0.0, 0.0, 0.0, 0.0, 0.01711815039179121, 0.0, 0.0, 0.0, 0.0, 0.0, 0.0, 0.01711815039179121, 0.0, 0.0, 0.0, 0.0, 0.0, 0.0, 0.017118150638070026, -1.9854257874729497e-11, 1.4010624051258733e-10, 0.0, 0.0, 0.0, -1.9854257874845793e-11, 0.017118150696633888, 4.8722514386985494e-11, 0.0, 0.0, 0.0, 1.4010624051245498e-10, 4.872251438713025e-11, 0.017118150547224084)"
1642435551.7570407,9975,1642435551,199742317,mocap,DragonFly17/base_link,-1.4111943932920044,-0.42570347904902955,1.0464975715348792,0.0034406367613942215,0.0018894232200658214,-0.048992023609313234,0.9987914565720164,"(7.868993454661508e-07, 0.0, 0.0, 0.0, 0.0, 0.0, 0.0, 7.868993454661508e-07, 0.0, 0.0, 0.0, 0.0, 0.0, 0.0, 7.868993454661508e-07, 0.0, 0.0, 0.0, 0.0, 0.0, 0.0, 7.868993472474583e-07, -3.0821980044203305e-17, 9.114570106992275e-16, 0.0, 0.0, 0.0, -3.082198003950775e-17, 7.868993476129215e-07, 3.0338082658220043e-16, 0.0, 0.0, 0.0, 9.114570107021633e-16, 3.033808265816131e-16, 7.868993464483725e-07)",-0.0028266530462882416,0.0004424741634999355,0.006658944318085279,-0.006007228529229308,-0.006692761112698313,0.02138459018894549,"(0.01694245003982791, 0.0, 0.0, 0.0, 0.0, 0.0, 0.0, 0.01694245003982791, 0.0, 0.0, 0.0, 0.0, 0.0, 0.0, 0.01694245003982791, 0.0, 0.0, 0.0, 0.0, 0.0, 0.0, 0.016942450277423547, -4.703489778300313e-11, 1.1223713923197779e-10, 0.0, 0.0, 0.0, -4.7034897783232953e-11, 0.016942450298645426, 8.471131306684249e-11, 0.0, 0.0, 0.0, 1.1223713923184544e-10, 8.471131306688136e-11, 0.016942450152624668)"
1642435551.7570715,9976,1642435551,210229635,mocap,DragonFly17/base_link,-1.411222536541132,-0.42568487209897765,1.0465707568911182,0.003341410366604001,0.002068217397570768,-0.04892457879644998,0.9987947452020173,"(7.941530444248997e-07, 0.0, 0.0, 0.0, 0.0, 0.0, 0.0, 7.941530444248997e-07, 0.0, 0.0, 0.0, 0.0, 0.0, 0.0, 7.941530444248997e-07, 0.0, 0.0, 0.0, 0.0, 0.0, 0.0, 7.941530464608529e-07, -1.9389466631270523e-16, 6.831808046644076e-16, 0.0, 0.0, 0.0, -1.9389466630722856e-16, 7.941530465578748e-07, 5.540701073253201e-16, 0.0, 0.0, 0.0, 6.83180804664955e-16, 5.540701073239506e-16, 7.94153045048409e-07)",-0.0027466623995966045,0.001252773291705202,0.006869491905811933,-0.012831725572563936,0.01858497099079129,0.01635936179901334,"(0.01665742339605042, 0.0, 0.0, 0.0, 0.0, 0.0, 0.0, 0.01665742339605042, 0.0, 0.0, 0.0, 0.0, 0.0, 0.0, 0.01665742339605042, 0.0, 0.0, 0.0, 0.0, 0.0, 0.0, 0.016657423565261162, -2.489368979339928e-11, 6.10356641969028e-11, 0.0, 0.0, 0.0, -2.4893689793539614e-11, 0.016657423569241894, 5.6750339324788286e-11, 0.0, 0.0, 0.0, 6.10356641969028e-11, 5.6750339324853633e-11, 0.016657423447068203)"
1642435551.7570817,9977,1642435551,219527721,mocap,DragonFly17/base_link,-1.4112663596953492,-0.42567060739001455,1.0466395324485636,0.003125332760267982,0.0021501612920235024,-0.04885480008795364,0.9987986872287811,"(7.720113190252462e-07, 0.0, 0.0, 0.0, 0.0, 0.0, 0.0, 7.720113190252462e-07, 0.0, 0.0, 0.0, 0.0, 0.0, 0.0, 7.720113190252462e-07, 0.0, 0.0, 0.0, 0.0, 0.0, 0.0, 7.720113217299685e-07, 7.036621079496892e-16, 8.565697854642017e-16, 0.0, 0.0, 0.0, 7.03662107947004e-16, 7.720113208439403e-07, -6.822342684424305e-16, 0.0, 0.0, 0.0, 8.565697854595013e-16, -6.822342684430998e-16, 7.720113212543571e-07)",-0.003822892712040025,0.0014008692352164805,0.007115953073367346,-0.03095343730523335,0.019146561432736332,0.015596754685103973,"(0.017280403889541586, 0.0, 0.0, 0.0, 0.0, 0.0, 0.0, 0.017280403889541586, 0.0, 0.0, 0.0, 0.0, 0.0, 0.0, 0.017280403889541586, 0.0, 0.0, 0.0, 0.0, 0.0, 0.0, 0.017280404028916167, 1.9300155677025876e-11, 5.000402256034708e-11, 0.0, 0.0, 0.0, 1.930015567717505e-11, 0.017280404018286212, -1.7914022886886097e-11, 0.0, 0.0, 0.0, 5.000402256034708e-11, -1.7914022887032508e-11, 0.017280403957548613)"
1642435551.7570972,9978,1642435551,229797840,mocap,DragonFly17/base_link,-1.4113229350341152,-0.42563810316511536,1.0466883256542714,0.0030377450566502337,0.0021295804693711173,-0.04878453042232215,0.9988024362122288,"(7.897446523104437e-07, 0.0, 0.0, 0.0, 0.0, 0.0, 0.0, 7.897446523104437e-07, 0.0, 0.0, 0.0, 0.0, 0.0, 0.0, 7.897446523104437e-07, 0.0, 0.0, 0.0, 0.0, 0.0, 0.0, 7.897446543661082e-07, 1.6713988473136785e-15, 1.4642374276977899e-15, 0.0, 0.0, 0.0, 1.6713988473165334e-15, 7.897446563520582e-07, -5.925088723075409e-16, 0.0, 0.0, 0.0, 1.464237427697218e-15, -5.925088723041133e-16, 7.897446564157475e-07)",-0.004866646726123117,0.002479857047582099,0.005715082183287794,-0.02275526312243959,0.005657770377927536,0.014542154342603458,"(0.016897073021624798, 0.0, 0.0, 0.0, 0.0, 0.0, 0.0, 0.016897073021624798, 0.0, 0.0, 0.0, 0.0, 0.0, 0.0, 0.016897073021624798, 0.0, 0.0, 0.0, 0.0, 0.0, 0.0, 0.016897073176165227, 1.0422803399488203e-10, 9.544611188906375e-11, 0.0, 0.0, 0.0, 1.0422803399473926e-10, 0.016897073245351273, -6.853870808671521e-11, 0.0, 0.0, 0.0, 9.544611188895787e-11, -6.853870808686162e-11, 0.016897073252812797)"
1642435551.7571504,9979,1642435551,239368677,mocap,DragonFly17/base_link,-1.4113876537040286,-0.42557546242654276,1.046735446263768,0.0033578942248473566,0.002046522825047799,-0.048719247559696754,0.9988047713181653,"(7.781504573721916e-07, 0.0, 0.0, 0.0, 0.0, 0.0, 0.0, 7.781504573721916e-07, 0.0, 0.0, 0.0, 0.0, 0.0, 0.0, 7.781504573721916e-07, 0.0, 0.0, 0.0, 0.0, 0.0, 0.0, 7.781504583326924e-07, 2.690093514155791e-16, 9.470661756839615e-16, 0.0, 0.0, 0.0, 2.690093514181244e-16, 7.781504594675484e-07, -2.220258642956637e-16, 0.0, 0.0, 0.0, 9.470661756861868e-16, -2.2202586429693643e-16, 7.781504588483253e-07)",-0.005932223267889914,0.004794358223765694,0.005241587401226633,0.02806277595391373,-0.00939015654797306,0.013867132911378121,"(0.017161871945941334, 0.0, 0.0, 0.0, 0.0, 0.0, 0.0, 0.017161871945941334, 0.0, 0.0, 0.0, 0.0, 0.0, 0.0, 0.017161871945941334, 0.0, 0.0, 0.0, 0.0, 0.0, 0.0, 0.017161872053953867, 8.21338753098138e-11, 9.962084203540873e-11, 0.0, 0.0, 0.0, 8.213387530980876e-11, 0.01716187217596614, -4.869768041057363e-11, 0.0, 0.0, 0.0, 9.962084203532932e-11, -4.8697680410720043e-11, 0.01716187216166913)"
1642435551.7571697,9980,1642435551,249543428,mocap,DragonFly17/base_link,-1.4115628764942505,-0.4257874959660965,1.0468290210850058,0.0011544930519885766,0.0028793192508422185,-0.04851899076493922,0.9988174428801343,"(7.884334873499228e-07, 0.0, 0.0, 0.0, 0.0, 0.0, 0.0, 7.884334873499228e-07, 0.0, 0.0, 0.0, 0.0, 0.0, 0.0, 7.884334873499228e-07, 0.0, 0.0, 0.0, 0.0, 0.0, 0.0, 7.884334887018562e-07, 1.5862355628030203e-15, -9.917232011872062e-16, 0.0, 0.0, 0.0, 1.5862355628024494e-15, 7.88433492193082e-07, 2.1484549330223748e-16, 0.0, 0.0, 0.0, -9.917232011860481e-16, 2.14845493306287e-16, 7.884334921912679e-07)",-0.012737089212482042,-0.0105986180281244,0.007635818943147272,-0.24392517404410788,0.10707482701855847,0.030150161877775132,"(0.016907034899905152, 0.0, 0.0, 0.0, 0.0, 0.0, 0.0, 0.016907034899905152, 0.0, 0.0, 0.0, 0.0, 0.0, 0.0, 0.016907034899905152, 0.0, 0.0, 0.0, 0.0, 0.0, 0.0, 0.016907034973439962, 4.787986580637492e-11, -1.3696801667101748e-11, 0.0, 0.0, 0.0, 4.787986580663931e-11, 0.01690703509040153, 3.3436232907032583e-12, 0.0, 0.0, 0.0, -1.3696801667154688e-11, 3.343623290715666e-12, 0.01690703505452469)"
1642435551.7572107,9981,1642435551,259779215,mocap,DragonFly17/base_link,-1.4114306230635882,-0.4253908936288619,1.0468148079688704,0.004539315992487954,0.0014589709130697966,-0.04840464959429933,0.99881642753404,"(7.898395617760362e-07, 0.0, 0.0, 0.0, 0.0, 0.0, 0.0, 7.898395617760362e-07, 0.0, 0.0, 0.0, 0.0, 0.0, 0.0, 7.898395617760362e-07, 0.0, 0.0, 0.0, 0.0, 0.0, 0.0, 7.898396073256066e-07, 9.71285577214587e-14, 2.5325872345356516e-14, 0.0, 0.0, 0.0, 9.712855772145861e-14, 7.898397866477487e-07, -1.1085314617340246e-14, 0.0, 0.0, 0.0, 2.532587234537021e-14, -1.1085314617294543e-14, 7.89839826176035e-07)",0.0025887651770094156,0.01888557656715415,0.0022475187675945387,0.2885438191833879,-0.14159967311636798,0.024178437689587325,"(0.016786981297918557, 0.0, 0.0, 0.0, 0.0, 0.0, 0.0, 0.016786981297918557, 0.0, 0.0, 0.0, 0.0, 0.0, 0.0, 0.016786981297918557, 0.0, 0.0, 0.0, 0.0, 0.0, 0.0, 0.016786982898544096, 3.2951531333247712e-09, 9.687457503672627e-10, 0.0, 0.0, 0.0, 3.2951531333248717e-09, 0.016786988954640224, -4.285530027552723e-10, 0.0, 0.0, 0.0, 9.687457503667862e-10, -4.28553002757801e-10, 0.01678699024991829)"
